id,name,uid,lat,lng,is_practical,line_id,created_at,updated_at
1,西苑,81b778513892613204fef57e,116.28654741200646,39.997210882234654,0,1,2018-07-23 02:28:36,2018-07-23 02:28:36
2,农大南路,f55dd9e80ba0a48bf92213bd,116.27627014328,40.02024310978039,1,1,2018-07-23 02:28:36,2018-07-23 02:28:36
3,马连洼,fcf4ac0162375d4683a00c0f,116.26683661721319,40.03122239826917,1,1,2018-07-23 02:28:36,2018-07-23 02:28:36
4,西北旺,8d25783c73ec0e296d20b94e,116.25159710433716,40.04794733481666,0,1,2018-07-23 02:28:36,2018-07-23 02:28:36
5,永丰南,8c71966addaa3ebbc72ba172,116.24205921598768,40.06448435997888,1,1,2018-07-23 02:28:36,2018-07-23 02:28:36
6,永丰,2450f36305d30441c7f02523,116.23214172810015,40.07061955612978,0,1,2018-07-23 02:28:36,2018-07-23 02:28:36
7,屯佃,f6a80736c9e0bb4c01294f28,116.20973655860757,40.06719952014224,0,1,2018-07-23 02:28:36,2018-07-23 02:28:36
8,稻香湖路,30dabc7a1f991fa032f71d56,116.18210644711003,40.06746330308234,0,1,2018-07-23 02:28:36,2018-07-23 02:28:36
9,温阳路,f7135121383143a02cb90806,116.15521183575909,40.06720196153249,0,1,2018-07-23 02:28:36,2018-07-23 02:28:36
10,北安河,c47408d6bfaac982047ce8dc,116.12402228810407,40.06647048923657,0,1,2018-07-23 02:28:36,2018-07-23 02:28:36
11,石厂,241139f1d4e97a9e48cc4ac5,116.09402143449867,39.888086160000036,0,2,2018-07-23 02:28:36,2018-07-23 02:28:36
12,小园,d6f5420c924ab8cb5cbe86df,116.10839342759932,39.888997682028,1,2,2018-07-23 02:28:36,2018-07-23 02:28:36
13,栗园庄,08b8cced88e5c0e2120daafa,116.11697736610846,39.894499898454086,0,2,2018-07-23 02:28:36,2018-07-23 02:28:36
14,上岸,ef7a9f2e9bafc62d88fc062c,116.11586347440586,39.90388877722525,1,2,2018-07-23 02:28:36,2018-07-23 02:28:36
15,桥户营,a5e38c162c229f20abf7291b,116.11945246741551,39.9110476405225,0,2,2018-07-23 02:28:36,2018-07-23 02:28:36
16,四道桥,26c7b03098bc2197d22dd62a,116.12760410075938,39.9146735871231,0,2,2018-07-23 02:28:36,2018-07-23 02:28:36
17,金安桥,4d39b0a0751f44c988b9886b,116.15681322873783,39.922411359295175,1,2,2018-07-23 02:28:36,2018-07-23 02:28:36
18,阎村东,9002600f28f2370d4e2fdf8f,116.094071684837,39.72766711735312,0,3,2018-07-23 02:28:36,2018-07-23 02:28:36
19,紫草坞,e3ba8e85fde9a08136b06c89,116.08038018386269,39.72315670951753,1,3,2018-07-23 02:28:36,2018-07-23 02:28:36
20,阎村,f6e319da24cbe9c2b1077d9f,116.0739557032368,39.71529460004493,0,3,2018-07-23 02:28:36,2018-07-23 02:28:36
21,星城,33a4137171b4aa7cf7b916a3,116.05506507705405,39.71224245716173,0,3,2018-07-23 02:28:36,2018-07-23 02:28:36
22,大石河东,c73780d4ca990ce38f55ec85,116.03349892591928,39.708479231840506,0,3,2018-07-23 02:28:36,2018-07-23 02:28:36
23,马各庄,bcaaab7ec9bade3809b93a02,116.01046789637647,39.703816239026,1,3,2018-07-23 02:28:36,2018-07-23 02:28:36
24,饶乐府,cfc687b8f76b6b6915a19014,115.99999544341685,39.70022640278119,1,3,2018-07-23 02:28:36,2018-07-23 02:28:36
25,房山城关,cc0f323dbe5b70ebdb1318c8,115.98361854671725,39.70484936166878,0,3,2018-07-23 02:28:36,2018-07-23 02:28:36
26,燕山,194e55c5212df2b79ff779a5,115.96753948644162,39.71843083414496,1,3,2018-07-23 02:28:36,2018-07-23 02:28:36
27,香山,24081e60e748a60a0b69d98a,116.19839630783444,39.99279230076201,1,4,2018-07-23 02:28:36,2018-07-23 02:28:36
28,植物园,5b9aedfc24e60e25b74f54a8,116.20864627174979,39.99233486155693,0,4,2018-07-23 02:28:36,2018-07-23 02:28:36
29,万安,3a529a2f3b14a80e83a00ce4,116.22592884775474,39.98278286032525,1,4,2018-07-23 02:28:36,2018-07-23 02:28:36
30,茶棚,4ff3c268eed9a1479b68b416,116.24203877659374,39.98081989538831,0,4,2018-07-23 02:28:36,2018-07-23 02:28:36
31,颐和园西门,d52b0d6ff8e8dc985abbbc31,116.25719437746002,39.9845509967126,1,4,2018-07-23 02:28:36,2018-07-23 02:28:36
32,巴沟,9d13c721622a3be1aa059d62,116.2857053257285,39.97314579548045,0,4,2018-07-23 02:28:36,2018-07-23 02:28:36
33,金安桥,f1767ff0ae9c0d4b95ca078a,116.15681322873783,39.922411359295175,0,5,2018-07-23 02:28:36,2018-07-23 02:28:36
34,四道桥,edf3d128b55a918171210b74,116.12760410075938,39.9146735871231,1,5,2018-07-23 02:28:36,2018-07-23 02:28:36
35,桥户营,3cb0b6f05506e0b30f0e6bb0,116.11945246741551,39.9110476405225,1,5,2018-07-23 02:28:36,2018-07-23 02:28:36
36,上岸,ac1243e981fbb6afbbdf8fc2,116.11586347440586,39.90388877722525,0,5,2018-07-23 02:28:36,2018-07-23 02:28:36
37,栗园庄,a132268badd8b1e6b34c49ac,116.11697736610846,39.894499898454086,1,5,2018-07-23 02:28:36,2018-07-23 02:28:36
38,小园,30aebdc154e43e0313293539,116.10839342759932,39.888997682028,0,5,2018-07-23 02:28:36,2018-07-23 02:28:36
39,石厂,c32bc896c9d017370b69d987,116.09402143449867,39.888086160000036,1,5,2018-07-23 02:28:36,2018-07-23 02:28:36
40,清华东路西口,485e9c4a2a204b792cb90830,116.3327349073822,39.9993189768044,0,6,2018-07-23 02:28:36,2018-07-23 02:28:36
41,六道口,4e8b4e3cea7b01c8d4851f15,116.3465115905808,39.99963623203165,0,6,2018-07-23 02:28:36,2018-07-23 02:28:36
42,北沙滩,b9ef9ad5c949ee9988b988cf,116.3628204363078,40.00017378125766,1,6,2018-07-23 02:28:36,2018-07-23 02:28:36
43,奥林匹克公园,14be73fbcff2d60645572637,116.38547666631179,40.00078784720394,0,6,2018-07-23 02:28:36,2018-07-23 02:28:36
44,安立路,12084f4e7f44fd259122e01a,116.40162440071795,40.00121252450842,0,6,2018-07-23 02:28:36,2018-07-23 02:28:36
45,大屯路东,e0eaaa062e5329b1f33cbaa0,116.41254129197546,40.001510155357856,0,6,2018-07-23 02:28:36,2018-07-23 02:28:36
46,关庄,5e5458247083bc730d3ddad4,116.4251250214537,39.9997592313259,1,6,2018-07-23 02:28:37,2018-07-23 02:28:37
47,望京西,5b78eff4963d1f271ee9996d,116.44460318686174,39.994737945157354,0,6,2018-07-23 02:28:37,2018-07-23 02:28:37
48,望京,2189153a996927a041ab9a6d,116.46325272178069,39.9972271285185,0,6,2018-07-23 02:28:37,2018-07-23 02:28:37
49,望京东,df4c0dec195dc46d715e8079,116.48067414602185,40.00204138948792,1,6,2018-07-23 02:28:37,2018-07-23 02:28:37
50,崔各庄,da471a6ea1ee78e232169b6d,116.48659251212999,40.02112357257888,0,6,2018-07-23 02:28:37,2018-07-23 02:28:37
51,马泉营,d21322e9feac0b5f1d38946d,116.49719389998401,40.03239436104564,0,6,2018-07-23 02:28:37,2018-07-23 02:28:37
52,孙河,eb947dab8d112471cb1b956d,116.52872683596495,40.043872416492235,0,6,2018-07-23 02:28:37,2018-07-23 02:28:37
53,国展,b7d60e16a23ff2527af7966d,116.54933668771265,40.06893261772616,0,6,2018-07-23 02:28:37,2018-07-23 02:28:37
54,花梨坎,c56b2138741c43beea1e976d,116.55181440820634,40.083355356031575,0,6,2018-07-23 02:28:37,2018-07-23 02:28:37
55,后沙峪,e545f71bc5f0d35717a1906d,116.5583463066811,40.11301316162945,0,6,2018-07-23 02:28:37,2018-07-23 02:28:37
56,南法信,dba4ccd282e57f532e4733ac,116.60408513873595,40.12740449020378,1,6,2018-07-23 02:28:37,2018-07-23 02:28:37
57,石门,8a6f52e2f91d160e6cc02cac,116.6352506347665,40.128881902565624,1,6,2018-07-23 02:28:37,2018-07-23 02:28:37
58,顺义,175f291a9040548903ff2dac,116.6511471788808,40.12880983502743,1,6,2018-07-23 02:28:37,2018-07-23 02:28:37
59,俸伯,6da74047d2c73bb682a12eac,116.67888227725055,40.13139149056504,1,6,2018-07-23 02:28:37,2018-07-23 02:28:37
60,南锣鼓巷,b1ee264560c4690803ec01e2,116.39729003180778,39.932373050639846,0,7,2018-07-23 02:28:37,2018-07-23 02:28:37
61,什刹海,ebf314200e805ddd2fe67bb8,116.38993762752698,39.93641668393221,1,7,2018-07-23 02:28:37,2018-07-23 02:28:37
62,鼓楼大街,d53e841d8d65c36b82a00ccc,116.38765883620422,39.946358971131986,0,7,2018-07-23 02:28:37,2018-07-23 02:28:37
63,安德里北街,e522fb26d747b67c4f776ec4,116.38825525771831,39.956195680354085,0,7,2018-07-23 02:28:37,2018-07-23 02:28:37
64,安华桥,3d00aa624525bbe9c5f50dcc,116.38796187395606,39.96714017329342,1,7,2018-07-23 02:28:37,2018-07-23 02:28:37
65,北土城,8749b42f15f096fb9fec2bac,116.38801498351982,39.97551474610658,0,7,2018-07-23 02:28:37,2018-07-23 02:28:37
66,奥体中心,5caf00cf5e2a51650482c249,116.38753691468001,39.98470338008024,0,7,2018-07-23 02:28:37,2018-07-23 02:28:37
67,奥林匹克公园,608d7a71fd4ab0ea14b54bfc,116.38663515167366,39.99946141668013,0,7,2018-07-23 02:28:37,2018-07-23 02:28:37
68,森林公园南门,9c0ff1ecaf8ffcb9455726ac,116.38638695592614,40.0084822467643,1,7,2018-07-23 02:28:37,2018-07-23 02:28:37
69,林萃桥,aa517f887af77d1e8d7727ac,116.36619431356837,40.020569357651446,1,7,2018-07-23 02:28:37,2018-07-23 02:28:37
70,永泰庄,2535aaf0fb50b53e210220ac,116.34839227030517,40.03659333814435,1,7,2018-07-23 02:28:37,2018-07-23 02:28:37
71,西小口,f34d2b573370194b9de321ac,116.3454426221089,40.045658104779804,1,7,2018-07-23 02:28:37,2018-07-23 02:28:37
72,育新,73eae3779f05a5aabfa822ac,116.3412194527758,40.05910933251066,1,7,2018-07-23 02:28:37,2018-07-23 02:28:37
73,霍营,b4ca4f0223e487e1d0ff23ac,116.3538525617654,40.070637122830114,0,7,2018-07-23 02:28:37,2018-07-23 02:28:37
74,回龙观东大街,19bff3e301afe8b63b221cac,116.3569913723737,40.0797132458061,1,7,2018-07-23 02:28:37,2018-07-23 02:28:37
75,平西府,aa8f6eb3baff841b095cb308,116.34444234704415,40.0887328192964,1,7,2018-07-23 02:28:37,2018-07-23 02:28:37
76,育知路,b0c2816f683df26395ca0771,116.32115491145353,40.086676064417304,0,7,2018-07-23 02:28:37,2018-07-23 02:28:37
77,朱辛庄,f78fa7c0bbbc9d6303ec0196,116.3075195680663,40.10311523711316,1,7,2018-07-23 02:28:37,2018-07-23 02:28:37
78,俸伯,03fa02c0bdf8bae8b6f42fac,116.67888227725055,40.13139149056504,0,8,2018-07-23 02:28:37,2018-07-23 02:28:37
79,顺义,407d6dff3ca68ebdda2f28ac,116.6511471788808,40.12880983502743,0,8,2018-07-23 02:28:37,2018-07-23 02:28:37
80,石门,2c42eca108f3e266abf729ac,116.6352506347665,40.128881902565624,0,8,2018-07-23 02:28:37,2018-07-23 02:28:37
81,南法信,ac1cd8f4642893beaeb22aac,116.60408513873595,40.12740449020378,0,8,2018-07-23 02:28:37,2018-07-23 02:28:37
82,后沙峪,069905e493fd1da9c62ba16d,116.5583463066811,40.11301316162945,1,8,2018-07-23 02:28:37,2018-07-23 02:28:37
83,花梨坎,d39910fa9be7ff62c07da26d,116.55181440820634,40.083355356031575,1,8,2018-07-23 02:28:37,2018-07-23 02:28:37
84,国展,c78718e0792cf934912ca36d,116.54933668771265,40.06893261772616,1,8,2018-07-23 02:28:37,2018-07-23 02:28:37
85,孙河,c89dfa2b7f7aa865f7c59c6d,116.52872683596495,40.043872416492235,1,8,2018-07-23 02:28:37,2018-07-23 02:28:37
86,马泉营,2b56fc7d2e2bce8caa059d6d,116.49719389998401,40.03239436104564,1,8,2018-07-23 02:28:37,2018-07-23 02:28:37
87,崔各庄,2e00ad2c48c2934cd3f49e6d,116.48659251212999,40.02112357257888,1,8,2018-07-23 02:28:37,2018-07-23 02:28:37
88,望京东,f2838f3ba47fed0e8bb9885a,116.48067414602185,40.00204138948792,0,8,2018-07-23 02:28:37,2018-07-23 02:28:37
89,望京,7e51cbc51502eabd293a9f6d,116.46325272178069,39.9972271285185,1,8,2018-07-23 02:28:37,2018-07-23 02:28:37
90,望京西,07b896056cf31073266e986d,116.44460318686174,39.994737945157354,0,8,2018-07-23 02:28:37,2018-07-23 02:28:37
91,关庄,9f62f0d9055b11583686f40a,116.4251250214537,39.9997592313259,0,8,2018-07-23 02:28:37,2018-07-23 02:28:37
92,大屯路东,2ba91843dc392e95d7851ff3,116.41254129197546,40.001510155357856,0,8,2018-07-23 02:28:37,2018-07-23 02:28:37
93,安立路,d4bc4b9718a82a9a704b87c5,116.40162440071795,40.00121252450842,1,8,2018-07-23 02:28:37,2018-07-23 02:28:37
94,奥林匹克公园,0ba75f65f947b67602294fe4,116.38547666631179,40.00078784720394,0,8,2018-07-23 02:28:37,2018-07-23 02:28:37
95,北沙滩,04d444d454375523d3ff2378,116.3628204363078,40.00017378125766,0,8,2018-07-23 02:28:37,2018-07-23 02:28:37
96,六道口,01667fc3bf46c9afb11e36db,116.3465115905808,39.99963623203165,1,8,2018-07-23 02:28:37,2018-07-23 02:28:37
97,清华东路西口,dbae86e3bffebcf5badf8f94,116.3327349073822,39.9993189768044,1,8,2018-07-23 02:28:37,2018-07-23 02:28:37
98,北京南站,22cfca0a33a8317ac6effb7b,116.37248632597517,39.86342203310453,0,9,2018-07-23 02:28:37,2018-07-23 02:28:37
99,永定门外,8ebe67b6cb469b8cfd0eb00a,116.39309329685648,39.86597199239143,0,9,2018-07-23 02:28:37,2018-07-23 02:28:37
100,景泰,0a12e7072b0fec75c6f025de,116.40450947220579,39.86373833762793,1,9,2018-07-23 02:28:37,2018-07-23 02:28:37
101,蒲黄榆,76c9aa0629e4359eb11e36f4,116.41689631698735,39.864151837073734,0,9,2018-07-23 02:28:37,2018-07-23 02:28:37
102,方庄,9a4692a87ef6e54cc0364470,116.43341062469489,39.86453209829403,1,9,2018-07-23 02:28:37,2018-07-23 02:28:37
103,十里河,e30135c94768100e9d82ea8f,116.45179653883713,39.86484097586704,0,9,2018-07-23 02:28:37,2018-07-23 02:28:37
104,北工大西门,0a2ccb2e854408826d20b903,116.47131834514413,39.873650686131754,0,9,2018-07-23 02:28:37,2018-07-23 02:28:37
105,平乐园,8aa5dc0e4045f4e2b817e78d,116.47127105586841,39.88366394507084,1,9,2018-07-23 02:28:37,2018-07-23 02:28:37
106,九龙山,179011335d98b1256168586b,116.47135027624539,39.89293618986523,1,9,2018-07-23 02:28:37,2018-07-23 02:28:37
107,大望路,cd01a2384ce49c8832870ac3,116.4717797795731,39.907619716147074,0,9,2018-07-23 02:28:37,2018-07-23 02:28:37
108,金台路,6498f554fb0073a30869d956,116.47205929020576,39.92231669413924,0,9,2018-07-23 02:28:37,2018-07-23 02:28:37
109,朝阳公园,fde954115b5ddad588b98878,116.47228433200617,39.932345961045954,0,9,2018-07-23 02:28:37,2018-07-23 02:28:37
110,枣营,2effad64d800a58c9d9d6890,116.46885438855712,39.94312723328921,1,9,2018-07-23 02:28:37,2018-07-23 02:28:37
111,东风北桥,f30e4c7fdee0b517bca8229b,116.47996771842246,39.95728917454276,1,9,2018-07-23 02:28:37,2018-07-23 02:28:37
112,将台,75a5ade36f0283353804b14a,116.48366536428375,39.969688681519166,0,9,2018-07-23 02:28:37,2018-07-23 02:28:37
113,望京南,e033a3b0dca73b44283a9f4a,116.47578060904394,39.98337588354747,0,9,2018-07-23 02:28:37,2018-07-23 02:28:37
114,阜通,530e0e765ad687e9f42310e9,116.46487910073209,39.99084769789451,1,9,2018-07-23 02:28:37,2018-07-23 02:28:37
115,望京,ba1a9be7d8051cfb6cc02c0b,116.46180179325698,39.99778999972135,0,9,2018-07-23 02:28:37,2018-07-23 02:28:37
116,东湖渠,7aa51bdae99cc9cd705e8058,116.46125371127965,40.00921373619687,0,9,2018-07-23 02:28:37,2018-07-23 02:28:37
117,来广营,6fbd5867f3ecd58b0b69d90c,116.46071641862386,40.01913566364785,0,9,2018-07-23 02:28:37,2018-07-23 02:28:37
118,善各庄,8b5ede3cdab797458bdb7343,116.4720753394524,40.02598696854875,0,9,2018-07-23 02:28:37,2018-07-23 02:28:37
119,西局,3d03aa624525bbe9c5f50dcd,116.29735086880889,39.86514250359415,0,10,2018-07-23 02:28:37,2018-07-23 02:28:37
120,七里庄,d95b3bc1ec3cdbe8c056acef,116.2878487227333,39.865084425379386,0,10,2018-07-23 02:28:37,2018-07-23 02:28:37
121,大井,107c62223da7fcbc87420ecd,116.26939519850875,39.864004958530366,1,10,2018-07-23 02:28:37,2018-07-23 02:28:37
122,郭庄子,d93c1aa07af2be0baf080fcd,116.24731266954113,39.86347432714797,1,10,2018-07-23 02:28:37,2018-07-23 02:28:37
123,大瓦窑,a6be5df5384596412eb908cd,116.23434602848322,39.85815930846499,1,10,2018-07-23 02:28:37,2018-07-23 02:28:37
124,园博园,e0eb1f42100f17f0611809cd,116.19567159456498,39.860033673487195,1,10,2018-07-23 02:28:37,2018-07-23 02:28:37
125,张郭庄,a15c370891be585133870acd,116.18076432271123,39.85675119701367,1,10,2018-07-23 02:28:37,2018-07-23 02:28:37
126,昌平西山口,3e7ade317445275e83a00c88,116.18950580735427,40.24308971503554,1,11,2018-07-23 02:28:37,2018-07-23 02:28:37
127,十三陵景区,4e09cf16837b1a75cd04effc,116.20159268168747,40.2387346275714,0,11,2018-07-23 02:28:37,2018-07-23 02:28:37
128,昌平,2bb3be4ec2d0315ab64f5494,116.22739285139781,40.21936116292024,0,11,2018-07-23 02:28:37,2018-07-23 02:28:37
129,昌平东关,233f6799b27ae5cbaaf0cd4e,116.25601932465499,40.22049500768305,0,11,2018-07-23 02:28:37,2018-07-23 02:28:37
130,北邵洼,0204e5050a8f7c7388fc06bc,116.2755004987474,40.220508867365474,0,11,2018-07-23 02:28:37,2018-07-23 02:28:37
131,南邵,c35417fc0e4b738515b54b6c,116.28102840539422,40.20584640766012,1,11,2018-07-23 02:28:37,2018-07-23 02:28:37
132,沙河高教园,ef818d4cf5cb2cfcc236446c,116.27432661642516,40.163426422195954,1,11,2018-07-23 02:28:37,2018-07-23 02:28:37
133,沙河,743176ccaab2fb7f4102456c,116.28259829102554,40.14713161086332,1,11,2018-07-23 02:28:37,2018-07-23 02:28:37
134,巩华城,8cb129b57d31784b4d6d466c,116.28793365062542,40.129800785094574,1,11,2018-07-23 02:28:37,2018-07-23 02:28:37
135,朱辛庄,d2c8fe36fe0574244c55476c,116.30743359747514,40.10310762603405,0,11,2018-07-23 02:28:37,2018-07-23 02:28:37
136,生命科学园,0a4b7d02f26a751cbca2406c,116.2880483117961,40.09345994221042,1,11,2018-07-23 02:28:37,2018-07-23 02:28:37
137,西二旗,f33f29f9c7d5c8bc4e2fdf96,116.30002909807595,40.05157687353415,0,11,2018-07-23 02:28:37,2018-07-23 02:28:37
138,善各庄,debbab5fba8abe05a21de96a,116.4720753394524,40.02598696854875,1,12,2018-07-23 02:28:37,2018-07-23 02:28:37
139,来广营,fb00b00265ddcc4f8733043f,116.46071641862386,40.01913566364785,1,12,2018-07-23 02:28:37,2018-07-23 02:28:37
140,东湖渠,a2ec780036eaf0294c6d467c,116.46125371127965,40.00921373619687,1,12,2018-07-23 02:28:37,2018-07-23 02:28:37
141,望京,dec12489a581cf5694ec84cf,116.46180179325698,39.99778999972135,0,12,2018-07-23 02:28:37,2018-07-23 02:28:37
142,阜通,fc6b8471fd4d32e802294faf,116.46487910073209,39.99084769789451,0,12,2018-07-23 02:28:37,2018-07-23 02:28:37
143,望京南,65f410b6ddc6027a2b3a9f3d,116.47578060904394,39.98337588354747,1,12,2018-07-23 02:28:37,2018-07-23 02:28:37
144,将台,f1e901e18e5846e017948e1c,116.48366536428375,39.969688681519166,1,12,2018-07-23 02:28:37,2018-07-23 02:28:37
145,东风北桥,e8aabe519a1fe879593ac8ee,116.47996771842246,39.95728917454276,0,12,2018-07-23 02:28:37,2018-07-23 02:28:37
146,枣营,a2e84d0d27a6323573210ba6,116.46885438855712,39.94312723328921,0,12,2018-07-23 02:28:37,2018-07-23 02:28:37
147,朝阳公园,3f60bf93763b9ef14054d744,116.47228433200617,39.932345961045954,1,12,2018-07-23 02:28:37,2018-07-23 02:28:37
148,金台路,63a590e45876565b871541ef,116.47205929020576,39.92231669413924,1,12,2018-07-23 02:28:37,2018-07-23 02:28:37
149,大望路,030e8a87c5ec54174e554776,116.4717797795731,39.907619716147074,0,12,2018-07-23 02:28:37,2018-07-23 02:28:37
150,九龙山,8c7698008af9b1e01d58009f,116.47135027624539,39.89293618986523,0,12,2018-07-23 02:28:37,2018-07-23 02:28:37
151,平乐园,afd70c7d1754ff9e6f3e1b75,116.47127105586841,39.88366394507084,0,12,2018-07-23 02:28:37,2018-07-23 02:28:37
152,北工大西门,4febfe51ac3d24499cf77947,116.47131834514413,39.873650686131754,1,12,2018-07-23 02:28:37,2018-07-23 02:28:37
153,十里河,cea92a31b23ec1185fd4feeb,116.45179653883713,39.86484097586704,1,12,2018-07-23 02:28:37,2018-07-23 02:28:37
154,方庄,7dc272535723276e7369d374,116.43341062469489,39.86453209829403,0,12,2018-07-23 02:28:37,2018-07-23 02:28:37
155,蒲黄榆,98a99ff83c05a26421026270,116.41689631698735,39.864151837073734,0,12,2018-07-23 02:28:37,2018-07-23 02:28:37
156,景泰,f30ebcfcc30d773984154130,116.40450947220579,39.86373833762793,0,12,2018-07-23 02:28:37,2018-07-23 02:28:37
157,永定门外,23675194c3166c00246e98f3,116.39309329685648,39.86597199239143,1,12,2018-07-23 02:28:37,2018-07-23 02:28:37
158,北京南站,e3f845a7e11b6cc87ab55c7b,116.37248632597517,39.86342203310453,0,12,2018-07-23 02:28:37,2018-07-23 02:28:37
159,西二旗,f85bcba1a0cea5c7b13c8164,116.30002909807595,40.05157687353415,0,13,2018-07-23 02:28:37,2018-07-23 02:28:37
160,生命科学园,872880a23a1285011776436c,116.2880483117961,40.09345994221042,0,13,2018-07-23 02:28:37,2018-07-23 02:28:37
161,朱辛庄,70dfb915034f2e3f58bbbc6d,116.30743359747514,40.10310762603405,0,13,2018-07-23 02:28:37,2018-07-23 02:28:37
162,巩华城,48688048a87161f27e29bd6d,116.28793365062542,40.129800785094574,0,13,2018-07-23 02:28:37,2018-07-23 02:28:37
163,沙河,72352b76e7bc47605af6be6d,116.28259829102554,40.14713161086332,0,13,2018-07-23 02:28:37,2018-07-23 02:28:37
164,沙河高教园,d80b64bbc12e63bf8405bf6d,116.27432661642516,40.163426422195954,0,13,2018-07-23 02:28:37,2018-07-23 02:28:37
165,南邵,88c64229e5f1bd4cf703b86d,116.28102840539422,40.20584640766012,0,13,2018-07-23 02:28:37,2018-07-23 02:28:37
166,北邵洼,46aae898661bc721f4b91612,116.2755004987474,40.220508867365474,1,13,2018-07-23 02:28:37,2018-07-23 02:28:37
167,昌平东关,b01487b504aa439c4c3a59fb,116.25601932465499,40.22049500768305,1,13,2018-07-23 02:28:37,2018-07-23 02:28:37
168,昌平,6e7f9b93145a1ab24e776e91,116.22739285139781,40.21936116292024,1,13,2018-07-23 02:28:37,2018-07-23 02:28:37
169,十三陵景区,fb5bb184f72e41b48bdb7397,116.20159268168747,40.2387346275714,1,13,2018-07-23 02:28:37,2018-07-23 02:28:37
170,昌平西山口,ae63945eab2d6db44f6d46ce,116.18950580735427,40.24308971503554,0,13,2018-07-23 02:28:37,2018-07-23 02:28:37
171,郭公庄,4274e5fc28cd251103ec01ac,116.29607860273188,39.81338062376513,0,14,2018-07-23 02:28:37,2018-07-23 02:28:37
172,大葆台,326646f755192ee8dad8916d,116.28573824235997,39.80659917364947,1,14,2018-07-23 02:28:38,2018-07-23 02:28:38
173,稻田,808ad61ea8a6e39141e1926d,116.21276385801451,39.79362843943371,1,14,2018-07-23 02:28:38,2018-07-23 02:28:38
174,长阳,11632ba165df78a85a10936d,116.20656909006297,39.76249126619003,1,14,2018-07-23 02:28:38,2018-07-23 02:28:38
175,篱笆房,ebdce6d8fee6635997f08c6d,116.18328955901445,39.75940394074088,1,14,2018-07-23 02:28:38,2018-07-23 02:28:38
176,广阳城,27a57de1e517aeb948fc8d6d,116.17877064271386,39.74663351989851,1,14,2018-07-23 02:28:38,2018-07-23 02:28:38
177,良乡大学城北,bf9c661028f771b516948e6d,116.17725306474848,39.72870222999158,1,14,2018-07-23 02:28:38,2018-07-23 02:28:38
178,良乡大学城,a56dabf0f7fb2fddbbdf8f6d,116.17028806939635,39.72197338597358,1,14,2018-07-23 02:28:38,2018-07-23 02:28:38
179,良乡大学城西,978e74fca993829689b9886d,116.1500838800516,39.72192435351344,1,14,2018-07-23 02:28:38,2018-07-23 02:28:38
180,良乡南关,49822a9404d8b0f08d1a896d,116.13456422269776,39.72192574435669,1,14,2018-07-23 02:28:38,2018-07-23 02:28:38
181,苏庄,14ea87df36beb45380288a6d,116.11908671636934,39.7219047915386,1,14,2018-07-23 02:28:38,2018-07-23 02:28:38
182,阎村东,72eb933489e0a097363a71db,116.09407030279614,39.72761248670491,0,14,2018-07-23 02:28:38,2018-07-23 02:28:38
183,安河桥北,fae158e1e517aeb948fc8d28,116.26398538179556,40.01112921452857,1,15,2018-07-23 02:28:38,2018-07-23 02:28:38
184,北宫门,60d8431028f771b516948e28,116.2715469539848,40.00109818850851,1,15,2018-07-23 02:28:38,2018-07-23 02:28:38
185,西苑,78298ef0f7fb2fddbbdf8f28,116.2846804181664,39.997170624034055,1,15,2018-07-23 02:28:38,2018-07-23 02:28:38
186,圆明园,b4c951fca993829689b98828,116.30333311437793,39.99818061198549,1,15,2018-07-23 02:28:38,2018-07-23 02:28:38
187,北京大学东门,6cc50f9404d8b0f08d1a8928,116.30960758873378,39.99082327259881,1,15,2018-07-23 02:28:38,2018-07-23 02:28:38
188,中关村,33ada2df36beb45380288a28,116.3104036553092,39.98278594782191,1,15,2018-07-23 02:28:38,2018-07-23 02:28:38
189,海淀黄庄,9de690b9321db961dcee8b28,116.31168081839458,39.97471652433697,0,15,2018-07-23 02:28:38,2018-07-23 02:28:38
190,人民大学,ae80941a3f2fe5a796ec8428,116.31540262102662,39.96567665465679,1,15,2018-07-23 02:28:38,2018-07-23 02:28:38
191,魏公村,a523992863e9afa5fadc8528,116.3171835602847,39.95638989093023,1,15,2018-07-23 02:28:38,2018-07-23 02:28:38
192,国家图书馆,a911c5ee29ebc3955ebe8628,116.31920708599397,39.9418254269089,1,15,2018-07-23 02:28:38,2018-07-23 02:28:38
193,动物园,f6d78fec45db67f7714b8728,116.33245433530882,39.93695560540421,1,15,2018-07-23 02:28:38,2018-07-23 02:28:38
194,西直门,bdd5e3dce1b94802705e8028,116.3493623484428,39.93891905754455,0,15,2018-07-23 02:28:38,2018-07-23 02:28:38
195,新街口,d6e547bece4c4917b03c8128,116.36142418548292,39.93925709887586,1,15,2018-07-23 02:28:38,2018-07-23 02:28:38
196,平安里,7387684bcf598975e9e58228,116.36663726419694,39.932326624938476,1,15,2018-07-23 02:28:38,2018-07-23 02:28:38
197,西四,5f72695e0f3bd0acf12d8328,116.36725276024731,39.92260003807844,1,15,2018-07-23 02:28:38,2018-07-23 02:28:38
198,灵境胡同,5f67a93c56e2c864f5eafc28,116.36754427617726,39.914693332783905,1,15,2018-07-23 02:28:38,2018-07-23 02:28:38
199,西单,8005f0e54e2acca33813fd28,116.36789196861605,39.905857672583785,0,15,2018-07-23 02:28:38,2018-07-23 02:28:38
200,宣武门,d8dce82d4aed015a5ed4fe28,116.36815951992887,39.898422448504974,0,15,2018-07-23 02:28:38,2018-07-23 02:28:38
201,菜市口,c314ecea8714679d55bfff28,116.36827687782366,39.887922267677006,0,15,2018-07-23 02:28:38,2018-07-23 02:28:38
202,陶然亭,c6d32113e1d36cf6ef74f828,116.36819919379494,39.877161072036095,1,15,2018-07-23 02:28:38,2018-07-23 02:28:38
203,北京南站,d44c0f1c6af0814f12882496,116.37248632597517,39.86342203310453,0,15,2018-07-23 02:28:38,2018-07-23 02:28:38
204,马家堡,6bed4cbf5073da5cea56fa28,116.36517030135987,39.851796489993085,1,15,2018-07-23 02:28:38,2018-07-23 02:28:38
205,角门西,6386f6745c12d31fc7effb28,116.36494168778164,39.8445338436613,1,15,2018-07-23 02:28:38,2018-07-23 02:28:38
206,公益西桥,af5466f63b02ce4a6c20b96d,116.36462020456486,39.835670691105236,0,15,2018-07-23 02:28:38,2018-07-23 02:28:38
207,新宫,888bb80548045569f23cba6d,116.3593993175774,39.81102644060353,1,15,2018-07-23 02:28:38,2018-07-23 02:28:38
208,西红门,5778cb03d327cb7527d2bb6d,116.32247308428634,39.788444421147034,1,15,2018-07-23 02:28:38,2018-07-23 02:28:38
209,高米店北,237e50204d3b1e9b9968b46d,116.32461022608842,39.77255888468719,1,15,2018-07-23 02:28:38,2018-07-23 02:28:38
210,高米店南,b95dce3c98d5a0218a2fb56d,116.32567638844358,39.76207481691574,1,15,2018-07-23 02:28:38,2018-07-23 02:28:38
211,枣园,24411bd2266fb36677e5b66d,116.3262354698291,39.75209783744283,1,15,2018-07-23 02:28:38,2018-07-23 02:28:38
212,清源路,f0afa56835284eacd718b76d,116.32628207359826,39.7413748134213,1,15,2018-07-23 02:28:38,2018-07-23 02:28:38
213,黄村西大街,4115b62fc8e2ee51ff0eb06d,116.3263988995312,39.73040516871396,1,15,2018-07-23 02:28:38,2018-07-23 02:28:38
214,黄村火车站,53524be5681fc6473804b16d,116.32676129570869,39.72135651747051,1,15,2018-07-23 02:28:38,2018-07-23 02:28:38
215,义和庄,ad98eb184009014dfb42b26d,116.31291590436514,39.71119109873243,1,15,2018-07-23 02:28:38,2018-07-23 02:28:38
216,生物医药基地,0c65c30e8703c20b0b5cb36d,116.3157004466704,39.68524745764271,1,15,2018-07-23 02:28:38,2018-07-23 02:28:38
217,天宫院,2373040444453215c256ac6d,116.31381504935463,39.66903665033512,1,15,2018-07-23 02:28:38,2018-07-23 02:28:38
218,焦化厂,3b3c158799bdad28eaf8533b,116.53130492268092,39.854334197576634,1,16,2018-07-23 02:28:38,2018-07-23 02:28:38
219,双合,e3e458813f69e7274bcc4a59,116.52093817980452,39.85892300071461,0,16,2018-07-23 02:28:38,2018-07-23 02:28:38
220,欢乐谷景区,ea4f4467b89d21544002459b,116.49343915966902,39.86550490579972,1,16,2018-07-23 02:28:38,2018-07-23 02:28:38
221,南楼梓庄,b98d4ccadeeb0e419cf77949,116.49533642958032,39.87334534465098,1,16,2018-07-23 02:28:38,2018-07-23 02:28:38
222,化工,4cd8680aee993b7d3310af0f,116.49764514826562,39.885762613299185,0,16,2018-07-23 02:28:38,2018-07-23 02:28:38
223,百子湾,f6ff7cd713d79186b2077d56,116.49132075405139,39.89155506240346,1,16,2018-07-23 02:28:38,2018-07-23 02:28:38
224,大郊亭,aedf28249adf1eb94afd3f5c,116.48212076613143,39.891828560494865,1,16,2018-07-23 02:28:38,2018-07-23 02:28:38
225,九龙山,8c6ac366a17f9fdc33169bca,116.4726601830531,39.89191179119883,0,16,2018-07-23 02:28:38,2018-07-23 02:28:38
226,广渠门外,9c9d7d84b1af78592cb17e39,116.44311072019796,39.89223666106402,1,16,2018-07-23 02:28:38,2018-07-23 02:28:38
227,广渠门内,5b4a42dab2673818b35c6a8b,116.42818808048288,39.89230559573699,1,16,2018-07-23 02:28:38,2018-07-23 02:28:38
228,磁器口,d427db1f64e6061ba1046405,116.4140485186524,39.8917596879348,0,16,2018-07-23 02:28:38,2018-07-23 02:28:38
229,桥湾,bfca70c8ea257b1537b06c8c,116.40226086148034,39.89127983399277,0,16,2018-07-23 02:28:38,2018-07-23 02:28:38
230,珠市口,0ad513bdf03d7222882fb510,116.39194582086702,39.889918573403236,1,16,2018-07-23 02:28:38,2018-07-23 02:28:38
231,虎坊桥,acb97581962f02e182288abc,116.37799800127094,39.8880617741562,0,16,2018-07-23 02:28:38,2018-07-23 02:28:38
232,菜市口,c1356dce7d572970eedfcaf2,116.36780780122704,39.88790871378146,0,16,2018-07-23 02:28:38,2018-07-23 02:28:38
233,广安门内,654839149f81a6c682288a1e,116.3518616388016,39.88827516336179,1,16,2018-07-23 02:28:38,2018-07-23 02:28:38
234,达官营,7f1f95eb8fcf0106ba17e729,116.3293087487989,39.88869431458355,0,16,2018-07-23 02:28:38,2018-07-23 02:28:38
235,湾子,9d7d2434afa857b41ce99904,116.32167699943513,39.88888114554393,1,16,2018-07-23 02:28:38,2018-07-23 02:28:38
236,北京西站,d70673ae8f490e0d95ca0795,116.3151662153415,39.893582708834806,1,16,2018-07-23 02:28:38,2018-07-23 02:28:38
237,次渠,bd42d5e54e2acca33813fd6d,116.58555650853397,39.80245051545505,1,17,2018-07-23 02:28:38,2018-07-23 02:28:38
238,次渠南,e79bcd2d4aed015a5ed4fe6d,116.5755475629659,39.794114670923406,1,17,2018-07-23 02:28:38,2018-07-23 02:28:38
239,经海路,fe53c9ea8714679d55bfff6d,116.55653378822261,39.782638122076605,1,17,2018-07-23 02:28:38,2018-07-23 02:28:38
240,同济南路,e5940413e1d36cf6ef74f86d,116.53406855022091,39.771852391748645,1,17,2018-07-23 02:28:38,2018-07-23 02:28:38
241,荣昌东街,296d62d4eab8d63de315f96d,116.51572826291651,39.78167938114963,1,17,2018-07-23 02:28:38,2018-07-23 02:28:38
242,荣京东街,4caa69bf5073da5cea56fa6d,116.50740433736411,39.79209973060803,1,17,2018-07-23 02:28:38,2018-07-23 02:28:38
243,万源街,46c1d3745c12d31fc7effb6d,116.49953707681496,39.80178847953597,1,17,2018-07-23 02:28:38,2018-07-23 02:28:38
244,亦庄文化园,fb0adf155551fea63786f46d,116.48447928028978,39.80557460590354,1,17,2018-07-23 02:28:38,2018-07-23 02:28:38
245,亦庄桥,f66bd65678e80ecf05fef56d,116.47422153262181,39.80171123685074,1,17,2018-07-23 02:28:38,2018-07-23 02:28:38
246,旧宫,fc28fbef88813cb716c8f66d,116.45467911704947,39.80555939693867,1,17,2018-07-23 02:28:38,2018-07-23 02:28:38
247,小红门,d0910b86baf92f819e09f76d,116.45304026139968,39.82699963117867,1,17,2018-07-23 02:28:38,2018-07-23 02:28:38
248,肖村,2ff839fea9cfa740cb09f06d,116.4422441485329,39.83285065485842,1,17,2018-07-23 02:28:38,2018-07-23 02:28:38
249,宋家庄,f2782ef98b70734a5a3ac8b5,116.4221949631651,39.84451782665524,0,17,2018-07-23 02:28:38,2018-07-23 02:28:38
250,国家图书馆,107f62223da7fcbc87420ecc,116.31920708599397,39.9418254269089,0,18,2018-07-23 02:28:38,2018-07-23 02:28:38
251,白石桥南,d93f1aa07af2be0baf080fcc,116.31957895036163,39.93159476787638,1,18,2018-07-23 02:28:38,2018-07-23 02:28:38
252,白堆子,a6bd5df5384596412eb908cc,116.31967189222914,39.922674910240836,1,18,2018-07-23 02:28:38,2018-07-23 02:28:38
253,军事博物馆,b4267700b8a6ce1640e19264,116.31560971545085,39.90636225166807,0,18,2018-07-23 02:28:38,2018-07-23 02:28:38
254,北京西站,2a83af6c772eccf022f017ac,116.31510620806087,39.89358536401595,0,18,2018-07-23 02:28:38,2018-07-23 02:28:38
255,六里桥东,85d1a7294abe1ab9f42310ac,116.30883160369521,39.88559091508117,1,18,2018-07-23 02:28:38,2018-07-23 02:28:38
256,六里桥,8e949ab99cf7cc6a1d1d11ac,116.297071141011,39.87904459552199,1,18,2018-07-23 02:28:38,2018-07-23 02:28:38
257,七里庄,b2044cf04a242554336212ac,116.28829920544776,39.86593320633558,0,18,2018-07-23 02:28:38,2018-07-23 02:28:38
258,丰台东大街,689b5a3a996927a041ab9a63,116.28774513657409,39.85393314618552,1,18,2018-07-23 02:28:38,2018-07-23 02:28:38
259,丰台南路,bc9e731d8d65c36b83a00cac,116.29038211227551,39.8397297891552,1,18,2018-07-23 02:28:38,2018-07-23 02:28:38
260,科怡路,56a05d624525bbe9c4f50dac,116.29133968187845,39.83120766534854,1,18,2018-07-23 02:28:38,2018-07-23 02:28:38
261,丰台科技园,79df95223da7fcbc86420eac,116.29117846985778,39.82399381337574,1,18,2018-07-23 02:28:38,2018-07-23 02:28:38
262,郭公庄,b69feda07af2be0bae080fac,116.29607860273188,39.81338062376513,1,18,2018-07-23 02:28:38,2018-07-23 02:28:38
263,宋家庄,31e53429c2e36c4379b55c25,116.4221949631651,39.84451782665524,1,19,2018-07-23 02:28:38,2018-07-23 02:28:38
264,肖村,8577f709ca4819726949f36d,116.4422441485329,39.83285065485842,0,19,2018-07-23 02:28:38,2018-07-23 02:28:38
265,小红门,d777494f9f3c50008d55ec6d,116.45304026139968,39.82699963117867,0,19,2018-07-23 02:28:38,2018-07-23 02:28:38
266,旧宫,68311c3bd64eb41cdaeced6d,116.45467911704947,39.80555939693867,0,19,2018-07-23 02:28:38,2018-07-23 02:28:38
267,亦庄桥,3e4555493252e3a58b36ee6d,116.47422153262181,39.80171123685074,0,19,2018-07-23 02:28:38,2018-07-23 02:28:38
268,亦庄文化园,7637b15565ebb27fcc04ef6d,116.48447928028978,39.80557460590354,0,19,2018-07-23 02:28:38,2018-07-23 02:28:38
269,万源街,ad2be6ec3431f54d057ce86d,116.49953707681496,39.80178847953597,0,19,2018-07-23 02:28:38,2018-07-23 02:28:38
270,荣京东街,fb92b73673033c35a31de96d,116.50740433736411,39.79209973060803,0,19,2018-07-23 02:28:38,2018-07-23 02:28:38
271,荣昌东街,a948f004ba7b9a549c82ea6d,116.51572826291651,39.78167938114963,0,19,2018-07-23 02:28:38,2018-07-23 02:28:38
272,同济南路,ef7a397c1c1aa5cb09f5eb6d,116.53406855022091,39.771852391748645,0,19,2018-07-23 02:28:38,2018-07-23 02:28:38
273,经海路,21029f1d238530bcea12e46d,116.55653378822261,39.782638122076605,0,19,2018-07-23 02:28:38,2018-07-23 02:28:38
274,次渠南,8663a082b6f2d35bac31e56d,116.5755475629659,39.794114670923406,0,19,2018-07-23 02:28:38,2018-07-23 02:28:38
275,次渠,bafc35f55515957842afe66d,116.58555650853397,39.80245051545505,0,19,2018-07-23 02:28:38,2018-07-23 02:28:38
276,张郭庄,06a7f9188c804968863304cd,116.18076432271123,39.85675119701367,0,20,2018-07-23 02:28:38,2018-07-23 02:28:38
277,园博园,4806ab87cf26bf7a14c905cd,116.19567159456498,39.860033673487195,0,20,2018-07-23 02:28:38,2018-07-23 02:28:38
278,大瓦窑,1999e82139342d808afc06cd,116.23434602848322,39.85815930846499,0,20,2018-07-23 02:28:38,2018-07-23 02:28:38
279,郭庄子,5b3f1e33abceb3b597ca07cd,116.24731266954113,39.86347432714797,0,20,2018-07-23 02:28:38,2018-07-23 02:28:38
280,大井,aa2d8cc935fbae831c5800cd,116.26939519850875,39.864004958530366,0,20,2018-07-23 02:28:38,2018-07-23 02:28:38
281,七里庄,36a965f0b54f373df32d837e,116.2878487227333,39.865084425379386,1,20,2018-07-23 02:28:38,2018-07-23 02:28:38
282,西局,39d712fc28cd251102ec01cd,116.29735086880889,39.86514250359415,0,20,2018-07-23 02:28:38,2018-07-23 02:28:38
283,海淀五路居,8815b6b9de1f0ace70210bcc,116.27033488387588,39.93103961753059,1,21,2018-07-23 02:28:38,2018-07-23 02:28:38
284,慈寿寺,06a4f9188c804968863304cc,116.28764736387,39.93159077994486,1,21,2018-07-23 02:28:38,2018-07-23 02:28:38
285,花园桥,4805ab87cf26bf7a14c905cc,116.3049845724259,39.9311382001231,1,21,2018-07-23 02:28:38,2018-07-23 02:28:38
286,白石桥南,199ae82139342d808afc06cc,116.31912660269333,39.93113118801232,0,21,2018-07-23 02:28:38,2018-07-23 02:28:38
287,车公庄西,5b3c1e33abceb3b597ca07cc,116.33788669273417,39.931090555657896,1,21,2018-07-23 02:28:38,2018-07-23 02:28:38
288,车公庄,aa2e8cc935fbae831c5800cc,116.34847020717469,39.93110048564023,0,21,2018-07-23 02:28:38,2018-07-23 02:28:38
289,平安里,39d412fc28cd251102ec01cc,116.36526577316515,39.931380025101845,0,21,2018-07-23 02:28:38,2018-07-23 02:28:38
290,北海北,a4e10fcaa35f3ba55c0d02cc,116.38026406503259,39.93184071088717,1,21,2018-07-23 02:28:38,2018-07-23 02:28:38
291,南锣鼓巷,b8d78458bdeb6544e11103cc,116.39685645715215,39.93182140945848,0,21,2018-07-23 02:28:38,2018-07-23 02:28:38
292,东四,2c459aece30ad8582ab97ccc,116.41022776560622,39.9229095006427,0,21,2018-07-23 02:28:38,2018-07-23 02:28:38
293,朝阳门,33f1c40d5e1613f0b3077dcc,116.42746957900152,39.923136048750784,0,21,2018-07-23 02:28:38,2018-07-23 02:28:38
294,东大桥,6e10791195be8a4e2db17ecc,116.4454702965238,39.921584068855516,1,21,2018-07-23 02:28:38,2018-07-23 02:28:38
295,呼家楼,d20cb2b90c0014f8b7147fcc,116.45547106127736,39.921991630444936,0,21,2018-07-23 02:28:38,2018-07-23 02:28:38
296,金台路,1ea42b0792b68e5dffa778cc,116.47240189692926,39.92162865392882,0,21,2018-07-23 02:28:38,2018-07-23 02:28:38
297,十里堡,861ab5b10813c6ee9ef779cc,116.49604337624193,39.921805657732605,1,21,2018-07-23 02:28:38,2018-07-23 02:28:38
298,青年路,1bac2f1440a0a7beadee7acc,116.51150028487524,39.9219417313496,1,21,2018-07-23 02:28:38,2018-07-23 02:28:38
299,褡裢坡,800967a721f094a72de67bcc,116.55783845378622,39.92298781575246,1,21,2018-07-23 02:28:38,2018-07-23 02:28:38
300,黄渠,c7ba06f712e914af44e274cc,116.57251609033864,39.923238008257776,1,21,2018-07-23 02:28:38,2018-07-23 02:28:38
301,常营,a7ea35ee92e17dabc71b75cc,116.59311258397743,39.92466752755634,1,21,2018-07-23 02:28:38,2018-07-23 02:28:38
302,草房,97f3b5e6fbe5fe527fc876cc,116.61030657693934,39.923527013783286,1,21,2018-07-23 02:28:38,2018-07-23 02:28:38
303,物资学院路,0fcad81f75d530cc59bbbc69,116.63335088851242,39.92567847220985,0,21,2018-07-23 02:28:38,2018-07-23 02:28:38
304,通州北关,b883923f536e816072210bcd,116.65573634751402,39.91744194026216,1,21,2018-07-23 02:28:39,2018-07-23 02:28:39
305,北运河西,d510b4efb457b9eb921fc9e0,116.68188282347118,39.90206310955519,0,21,2018-07-23 02:28:39,2018-07-23 02:28:39
306,郝家府,3b2b7e68bf1e2e772d4733f5,116.7116154685733,39.90229811148843,1,21,2018-07-23 02:28:39,2018-07-23 02:28:39
307,东夏园,477dab883f6f190fb45f1e30,116.72836499849467,39.90219714185919,1,21,2018-07-23 02:28:39,2018-07-23 02:28:39
308,潞城,5e713cd3b1594a282102620c,116.74232234139909,39.90137897265635,1,21,2018-07-23 02:28:39,2018-07-23 02:28:39
309,郭公庄,cf1daaf5384596412fb908ac,116.29607860273188,39.81338062376513,0,22,2018-07-23 02:28:39,2018-07-23 02:28:39
310,丰台科技园,8b48e842100f17f0601809ac,116.29117846985778,39.82399381337574,0,22,2018-07-23 02:28:39,2018-07-23 02:28:39
311,科怡路,c8ffc00891be585132870aac,116.29133968187845,39.83120766534854,0,22,2018-07-23 02:28:39,2018-07-23 02:28:39
312,丰台南路,ffb541b9de1f0ace71210bac,116.29038211227551,39.8397297891552,0,22,2018-07-23 02:28:39,2018-07-23 02:28:39
313,丰台东大街,9555556ea1ee78e232169b63,116.28774513657409,39.85393314618552,0,22,2018-07-23 02:28:39,2018-07-23 02:28:39
314,七里庄,33a55c87cf26bf7a15c905ac,116.28829920544776,39.86593320633558,0,22,2018-07-23 02:28:39,2018-07-23 02:28:39
315,六里桥,603a1f2139342d808bfc06ac,116.297071141011,39.87904459552199,0,22,2018-07-23 02:28:39,2018-07-23 02:28:39
316,六里桥东,249ce933abceb3b596ca07ac,116.30883160369521,39.88559091508117,0,22,2018-07-23 02:28:39,2018-07-23 02:28:39
317,北京西站,d38e7bc935fbae831d5800ac,116.31510620806087,39.89358536401595,0,22,2018-07-23 02:28:39,2018-07-23 02:28:39
318,军事博物馆,b14e5acd2345b2f822f01762,116.31560971545085,39.90636225166807,0,22,2018-07-23 02:28:39,2018-07-23 02:28:39
319,白堆子,78ff5f1bc0cfce470e0a70cc,116.31967189222914,39.922674910240836,0,22,2018-07-23 02:28:39,2018-07-23 02:28:39
320,白石桥南,fa06e7c848093743353a71cc,116.31957895036163,39.93159476787638,0,22,2018-07-23 02:28:39,2018-07-23 02:28:39
321,国家图书馆,41d56f0eb10d0c73038972cc,116.31920708599397,39.9418254269089,0,22,2018-07-23 02:28:39,2018-07-23 02:28:39
322,阎村东,ccd982520123ee55fd0eb0e0,116.09407030279614,39.72761248670491,0,23,2018-07-23 02:28:39,2018-07-23 02:28:39
323,苏庄,b8a1b5b9321db961dcee8b6d,116.11908671636934,39.7219047915386,0,23,2018-07-23 02:28:39,2018-07-23 02:28:39
324,良乡南关,8dc7b11a3f2fe5a796ec846d,116.13456422269776,39.72192574435669,0,23,2018-07-23 02:28:39,2018-07-23 02:28:39
325,良乡大学城西,8864bc2863e9afa5fadc856d,116.1500838800516,39.72192435351344,0,23,2018-07-23 02:28:39,2018-07-23 02:28:39
326,良乡大学城,8656e0ee29ebc3955ebe866d,116.17028806939635,39.72197338597358,0,23,2018-07-23 02:28:39,2018-07-23 02:28:39
327,良乡大学城北,db90aaec45db67f7714b876d,116.17725306474848,39.72870222999158,0,23,2018-07-23 02:28:39,2018-07-23 02:28:39
328,广阳城,9e92c6dce1b94802705e806d,116.17877064271386,39.74663351989851,0,23,2018-07-23 02:28:39,2018-07-23 02:28:39
329,篱笆房,f3a262bece4c4917b03c816d,116.18328955901445,39.75940394074088,0,23,2018-07-23 02:28:39,2018-07-23 02:28:39
330,长阳,54c04d4bcf598975e9e5826d,116.20656909006297,39.76249126619003,0,23,2018-07-23 02:28:39,2018-07-23 02:28:39
331,稻田,7a354c5e0f3bd0acf12d836d,116.2127638580966,39.7936285780411,0,23,2018-07-23 02:28:39,2018-07-23 02:28:39
332,大葆台,7c208c3c56e2c864f5eafc6d,116.28573824235997,39.80659917364947,0,23,2018-07-23 02:28:39,2018-07-23 02:28:39
333,郭公庄,dd41f8caa35f3ba55d0d02ac,116.29607860273188,39.81338062376513,0,23,2018-07-23 02:28:39,2018-07-23 02:28:39
334,潞城,3f94dacef8dc7a3f0f0e6b89,116.74232234139909,39.90137897265635,0,24,2018-07-23 02:28:39,2018-07-23 02:28:39
335,东夏园,aa25a49a368c246bad04572e,116.72836499849467,39.90219714185919,0,24,2018-07-23 02:28:39,2018-07-23 02:28:39
336,郝家府,5754ab925c6bb80ff50e77f9,116.7116154685733,39.90229811148843,0,24,2018-07-23 02:28:39,2018-07-23 02:28:39
337,北运河西,8bbde5f001a2885a4351c001,116.68188282347118,39.90206310955519,1,24,2018-07-23 02:28:39,2018-07-23 02:28:39
338,通州北关,0db772835d61e0898a36ee52,116.65573634751402,39.91744194026216,0,24,2018-07-23 02:28:39,2018-07-23 02:28:39
339,物资学院路,48fc71ced175d435e9f853ff,116.63335088851242,39.92567847220985,1,24,2018-07-23 02:28:39,2018-07-23 02:28:39
340,草房,4e17ad3abc8eb39234b06ccc,116.61030657693934,39.923527013783286,0,24,2018-07-23 02:28:39,2018-07-23 02:28:39
341,常营,74279b8935dc0df92eb96dcc,116.59311258397743,39.92466752755634,0,24,2018-07-23 02:28:39,2018-07-23 02:28:39
342,黄渠,419412db8bb717f04c776ecc,116.57251609033864,39.923238008257776,0,24,2018-07-23 02:28:39,2018-07-23 02:28:39
343,褡裢坡,c9c6acb091be753e06026fcc,116.55783845378622,39.92298781575246,0,24,2018-07-23 02:28:39,2018-07-23 02:28:39
344,青年路,70adb6b9f3703f4b9f9d68cc,116.51150028487524,39.9219417313496,0,24,2018-07-23 02:28:39,2018-07-23 02:28:39
345,十里堡,6ba4d477b905a6d4760269cc,116.49604337624193,39.921805657732605,0,24,2018-07-23 02:28:39,2018-07-23 02:28:39
346,金台路,0a6a9e02209a4f4bb15c6acc,116.47240189692926,39.92162865392882,0,24,2018-07-23 02:28:39,2018-07-23 02:28:39
347,呼家楼,411f079dc90588150d0e6bcc,116.45547106127736,39.921991630444936,0,24,2018-07-23 02:28:39,2018-07-23 02:28:39
348,东大桥,d780ee020e5b3447a00464cc,116.4454702965238,39.921584068855516,0,24,2018-07-23 02:28:39,2018-07-23 02:28:39
349,朝阳门,3f1f295cb209994de7e965cc,116.42746957900152,39.923136048750784,0,24,2018-07-23 02:28:39,2018-07-23 02:28:39
350,东四,fb41950e1f03dea0accb66cc,116.41022776560622,39.9229095006427,0,24,2018-07-23 02:28:39,2018-07-23 02:28:39
351,南锣鼓巷,4613380458ee9582611c67cc,116.39685645715215,39.93182140945848,0,24,2018-07-23 02:28:39,2018-07-23 02:28:39
352,北海北,ec197fe913cc58556d4760cc,116.38026406503259,39.93184071088717,0,24,2018-07-23 02:28:39,2018-07-23 02:28:39
353,平安里,aaf434cbde1b540ef92d61cc,116.36526577316515,39.931380025101845,0,24,2018-07-23 02:28:39,2018-07-23 02:28:39
354,车公庄,e2d6f91cd240c064200262cc,116.34847020717469,39.93110048564023,0,24,2018-07-23 02:28:39,2018-07-23 02:28:39
355,车公庄西,2e01f547462a194bb9bd63cc,116.33788669273417,39.931090555657896,0,24,2018-07-23 02:28:39,2018-07-23 02:28:39
356,白石桥南,3d5a612d9f0580f47bb55ccc,116.31912660269333,39.93113118801232,0,24,2018-07-23 02:28:39,2018-07-23 02:28:39
357,花园桥,a830b80206ba42fc8af15dcc,116.3049845724259,39.9311382001231,0,24,2018-07-23 02:28:39,2018-07-23 02:28:39
358,慈寿寺,721f21bdc4b2b3b83e9a5ecc,116.28764736387,39.93159077994486,0,24,2018-07-23 02:28:39,2018-07-23 02:28:39
359,海淀五路居,eaa0e3b535f607d3cbfa5fcc,116.27033488387588,39.93103961753059,0,24,2018-07-23 02:28:39,2018-07-23 02:28:39
360,天宫院,e579c742b45bfb1ff80cad6d,116.31381504935463,39.66903665033512,0,25,2018-07-23 02:28:39,2018-07-23 02:28:39
361,生物医药基地,253f375c7d51c145374aae6d,116.3157004466704,39.68524745764271,0,25,2018-07-23 02:28:39,2018-07-23 02:28:39
362,义和庄,d421fe56470b0e033210af6d,116.31291590436514,39.71119109873243,0,25,2018-07-23 02:28:39,2018-07-23 02:28:39
363,黄村火车站,222bc40c884d0b59b120a86d,116.32676129570869,39.72135651747051,0,25,2018-07-23 02:28:39,2018-07-23 02:28:39
364,黄村西大街,19710b4a8d1788696040a96d,116.3263988995312,39.73040516871396,0,25,2018-07-23 02:28:39,2018-07-23 02:28:39
365,清源路,d5370e100e275909110daa6d,116.32628207359826,39.7413748134213,0,25,2018-07-23 02:28:39,2018-07-23 02:28:39
366,枣园,d16d8d20df4728442ad7ab6d,116.3262354698291,39.75209783744283,0,25,2018-07-23 02:28:39,2018-07-23 02:28:39
367,高米店南,555d5c40ae0a139ece06a46d,116.32567638844358,39.76207481691574,0,25,2018-07-23 02:28:39,2018-07-23 02:28:39
368,高米店北,853d2d0d95d0f74fefe4a56d,116.32461022608842,39.77255888468719,0,25,2018-07-23 02:28:39,2018-07-23 02:28:39
369,西红门,f77016d77101d6ad39e4a66d,116.32247308428634,39.788444421147034,0,25,2018-07-23 02:28:39,2018-07-23 02:28:39
370,新宫,cdaaf20650e300ad2cfaa76d,116.3593993175774,39.81102644060353,0,25,2018-07-23 02:28:39,2018-07-23 02:28:39
371,公益西桥,db2cf35678e80ecf05fef528,116.36462020456486,39.835670691105236,1,25,2018-07-23 02:28:39,2018-07-23 02:28:39
372,角门西,d36fdeef88813cb716c8f628,116.36494168778164,39.8445338436613,0,25,2018-07-23 02:28:39,2018-07-23 02:28:39
373,马家堡,fdd62e86baf92f819e09f728,116.36517030135987,39.851796489993085,0,25,2018-07-23 02:28:39,2018-07-23 02:28:39
374,北京南站,c05bf27fd828662ff423105f,116.37248632597517,39.86342203310453,1,25,2018-07-23 02:28:39,2018-07-23 02:28:39
375,陶然亭,39c70fc8210ef240754ff128,116.36819919379494,39.877161072036095,0,25,2018-07-23 02:28:39,2018-07-23 02:28:39
376,菜市口,2bf18709740e4c06203bf228,116.36827687782366,39.887922267677006,0,25,2018-07-23 02:28:39,2018-07-23 02:28:39
377,宣武门,a030d209ca4819726949f328,116.36815951992887,39.898422448504974,0,25,2018-07-23 02:28:39,2018-07-23 02:28:39
378,西单,f4306c4f9f3c50008d55ec28,116.36789196861605,39.905857672583785,0,25,2018-07-23 02:28:39,2018-07-23 02:28:39
379,灵境胡同,3576393bd64eb41cdaeced28,116.36754427617726,39.914693332783905,0,25,2018-07-23 02:28:39,2018-07-23 02:28:39
380,西四,610270493252e3a58b36ee28,116.36725276024731,39.92260003807844,0,25,2018-07-23 02:28:39,2018-07-23 02:28:39
381,平安里,2b70945565ebb27fcc04ef28,116.36663726419694,39.932326624938476,0,25,2018-07-23 02:28:39,2018-07-23 02:28:39
382,新街口,ce6cc3ec3431f54d057ce828,116.36142418548292,39.93925709887586,0,25,2018-07-23 02:28:39,2018-07-23 02:28:39
383,西直门,9ed5923673033c35a31de928,116.3493623484428,39.93891905754455,0,25,2018-07-23 02:28:39,2018-07-23 02:28:39
384,动物园,ce0fd504ba7b9a549c82ea28,116.33245433530882,39.93695560540421,0,25,2018-07-23 02:28:39,2018-07-23 02:28:39
385,国家图书馆,8a3d1c7c1c1aa5cb09f5eb28,116.31920708599397,39.9418254269089,0,25,2018-07-23 02:28:39,2018-07-23 02:28:39
386,魏公村,4245ba1d238530bcea12e428,116.3171835602847,39.95638989093023,0,25,2018-07-23 02:28:39,2018-07-23 02:28:39
387,人民大学,eb248582b6f2d35bac31e528,116.31540262102662,39.96567665465679,0,25,2018-07-23 02:28:39,2018-07-23 02:28:39
388,海淀黄庄,d5bb10f55515957842afe628,116.31168081839458,39.97471652433697,0,25,2018-07-23 02:28:39,2018-07-23 02:28:39
389,中关村,43ccf31213367be6b917e728,116.3104036553092,39.98278594782191,0,25,2018-07-23 02:28:39,2018-07-23 02:28:39
390,北京大学东门,a12bb531fda8805e9022e028,116.30960758873378,39.99082327259881,0,25,2018-07-23 02:28:39,2018-07-23 02:28:39
391,圆明园,e0085baf0610a96b2802e128,116.30333311437793,39.99818061198549,0,25,2018-07-23 02:28:39,2018-07-23 02:28:39
392,西苑,0f96a0172f25114bd52ce228,116.2846804181664,39.997170624034055,0,25,2018-07-23 02:28:39,2018-07-23 02:28:39
393,北宫门,f72e89229705ec65d33ce328,116.2715469539848,40.00109818850851,0,25,2018-07-23 02:28:39,2018-07-23 02:28:39
394,安河桥北,df1b31026a2bea753717dc28,116.26398538179556,40.01112921452857,0,25,2018-07-23 02:28:39,2018-07-23 02:28:39
395,北京西站,6b5b1c0992a2b848276e98d6,116.3151662153415,39.893582708834806,0,26,2018-07-23 02:28:39,2018-07-23 02:28:39
396,湾子,57af17b06eee3e138605bf33,116.32167699943513,39.88888114554393,0,26,2018-07-23 02:28:39,2018-07-23 02:28:39
397,达官营,f959332641cf40842b201aac,116.3293087487989,39.88869431458355,1,26,2018-07-23 02:28:39,2018-07-23 02:28:39
398,广安门内,cb57233696fdc35fa1a9349b,116.3518616388016,39.88827516336179,0,26,2018-07-23 02:28:39,2018-07-23 02:28:39
399,菜市口,d2bae5a69b799790631c67e0,116.36780780122704,39.88790871378146,1,26,2018-07-23 02:28:39,2018-07-23 02:28:39
400,虎坊桥,26d4a4a4c12825e1cac3db60,116.37799800127094,39.8880617741562,1,26,2018-07-23 02:28:39,2018-07-23 02:28:39
401,珠市口,d0fb2dc1c784650fd3ff23fc,116.39194582086702,39.889918573403236,0,26,2018-07-23 02:28:39,2018-07-23 02:28:39
402,桥湾,9a6587ccccaea46a81288a2e,116.40226086148034,39.89127983399277,1,26,2018-07-23 02:28:39,2018-07-23 02:28:39
403,磁器口,9f5c0a9e1dc559654e2fdf41,116.4140485186524,39.8917596879348,1,26,2018-07-23 02:28:39,2018-07-23 02:28:39
404,广渠门内,24fcbcac0f3158d133621223,116.42818808048288,39.89230559573699,0,26,2018-07-23 02:28:39,2018-07-23 02:28:39
405,广渠门外,46c0fed5a50e39cee311039c,116.44311072019796,39.89223666106402,0,26,2018-07-23 02:28:39,2018-07-23 02:28:39
406,九龙山,e21974cdfd46b42f54bfff0f,116.4726601830531,39.89191179119883,0,26,2018-07-23 02:28:39,2018-07-23 02:28:39
407,大郊亭,5c2793af51630c982ce67be5,116.48212076613143,39.891828560494865,0,26,2018-07-23 02:28:39,2018-07-23 02:28:39
408,百子湾,ab4ea5c21357bbcc364aaecf,116.49132075405139,39.89155506240346,0,26,2018-07-23 02:28:39,2018-07-23 02:28:39
409,化工,77ed7dacc17501cfae045745,116.49764514826562,39.885762613299185,1,26,2018-07-23 02:28:39,2018-07-23 02:28:39
410,南楼梓庄,37b8c942db953ea6b05c6a1e,116.49533642958032,39.87334534465098,0,26,2018-07-23 02:28:39,2018-07-23 02:28:39
411,欢乐谷景区,8ac6296ced6ec46c03ff2dd3,116.49343915966902,39.86550490579972,0,26,2018-07-23 02:28:39,2018-07-23 02:28:39
412,双合,0a7813b766065c7ec7f50d9f,116.52093817980452,39.85892300071461,1,26,2018-07-23 02:28:39,2018-07-23 02:28:39
413,焦化厂,e30d095056ae69a9adcb6638,116.53130492268092,39.854334197576634,0,26,2018-07-23 02:28:39,2018-07-23 02:28:39
414,朱辛庄,b65a224f8c338493f8f0cb3b,116.3075195680663,40.10311523711316,0,27,2018-07-23 02:28:39,2018-07-23 02:28:39
415,育知路,32c90b23cc4790a87369d332,116.32115491145353,40.086676064417304,1,27,2018-07-23 02:28:39,2018-07-23 02:28:39
416,平西府,ae1efa3d08a94993c61e51d1,116.34444234704415,40.0887328192964,0,27,2018-07-23 02:28:39,2018-07-23 02:28:39
417,回龙观东大街,a65ed1a86ef8036b32f71dac,116.3569913723737,40.0797132458061,0,27,2018-07-23 02:28:39,2018-07-23 02:28:39
418,霍营,8515beff85250abeb75f1eac,116.3538525617654,40.070637122830114,0,27,2018-07-23 02:28:39,2018-07-23 02:28:39
419,育新,ed4255228cf08f16d4851fac,116.3412194527758,40.05910933251066,0,27,2018-07-23 02:28:39,2018-07-23 02:28:39
420,西小口,079f5cf70958ecccdb1318ac,116.3454426221089,40.045658104779804,0,27,2018-07-23 02:28:39,2018-07-23 02:28:39
421,永泰庄,0d4ad95f6a82e35a970319ac,116.34839227030517,40.03659333814435,0,27,2018-07-23 02:28:39,2018-07-23 02:28:39
422,林萃桥,89e2ba856514af4a28201aac,116.36619431356837,40.020569357651446,0,27,2018-07-23 02:28:39,2018-07-23 02:28:39
423,森林公园南门,9538b513290410696f3e1bac,116.38638695592614,40.0084822467643,0,27,2018-07-23 02:28:39,2018-07-23 02:28:39
424,奥林匹克公园,5644cf50f6cf052382a12ec3,116.38663515167366,39.99946141668013,1,27,2018-07-23 02:28:39,2018-07-23 02:28:39
425,奥体中心,27aebfcb97b74d5e63180929,116.38753691468001,39.98470338008024,1,27,2018-07-23 02:28:39,2018-07-23 02:28:39
426,北土城,6a9d013e7f6bf160f4b916ac,116.38801498351982,39.97551474610658,0,27,2018-07-23 02:28:39,2018-07-23 02:28:39
427,安华桥,2fa812f1819df2b3606858cc,116.38796187395606,39.96714017329342,0,27,2018-07-23 02:28:39,2018-07-23 02:28:39
428,安德里北街,644aa46befb94d90b45f1ed8,116.38825525771831,39.956195680354085,1,27,2018-07-23 02:28:39,2018-07-23 02:28:39
429,鼓楼大街,dfeca69a74fd59214e3a59cc,116.38765883620422,39.946358971131986,0,27,2018-07-23 02:28:39,2018-07-23 02:28:39
430,什刹海,ad87b49550d4bdb3b21e366b,116.38993762752698,39.93641668393221,0,27,2018-07-23 02:28:39,2018-07-23 02:28:39
431,南锣鼓巷,cfaef99f6672f32dad31e535,116.39729003180778,39.932373050639846,1,27,2018-07-23 02:28:39,2018-07-23 02:28:39
432,巴沟,1330ca48faf89de2ee74f863,116.2857053257285,39.97314579548045,1,28,2018-07-23 02:28:39,2018-07-23 02:28:39
433,颐和园西门,62af5a3a3a3107ec6fa3cc9d,116.25719437746002,39.9845509967126,0,28,2018-07-23 02:28:39,2018-07-23 02:28:39
434,茶棚,0c1f5a84ed3e11c7118824fe,116.24203877659374,39.98081989538831,1,28,2018-07-23 02:28:39,2018-07-23 02:28:39
435,万安,d60bffd386e2c559471a3269,116.22592884775474,39.98278286032525,0,28,2018-07-23 02:28:40,2018-07-23 02:28:40
436,植物园,af96812f26cbdbe92b11d1ae,116.20864627174979,39.99233486155693,1,28,2018-07-23 02:28:40,2018-07-23 02:28:40
437,香山,f4a8a3ac83e1f5fbc26c1453,116.19839630783444,39.99279230076201,0,28,2018-07-23 02:28:40,2018-07-23 02:28:40
438,燕山,53a647e58bc237baeddfcaf1,115.96753948644162,39.71843083414496,0,29,2018-07-23 02:28:40,2018-07-23 02:28:40
439,房山城关,75e029ecec27276fe215f942,115.98361854671725,39.70484936166878,1,29,2018-07-23 02:28:40,2018-07-23 02:28:40
440,饶乐府,4f92c09b9eb1367caecb660d,115.99999544341685,39.70022640278119,0,29,2018-07-23 02:28:40,2018-07-23 02:28:40
441,马各庄,9205a45a541e35737cc876ae,116.01046789637647,39.703816239026,0,29,2018-07-23 02:28:40,2018-07-23 02:28:40
442,大石河东,11525aaf4f3b1411343a71a3,116.03349892591928,39.708479231840506,1,29,2018-07-23 02:28:40,2018-07-23 02:28:40
443,星城,69a602e4d3cc202b2e4733f4,116.05506507705405,39.71224245716173,1,29,2018-07-23 02:28:40,2018-07-23 02:28:40
444,阎村,48b982c32a78cbe40189722d,116.0739557032368,39.71529460004493,1,29,2018-07-23 02:28:40,2018-07-23 02:28:40
445,紫草坞,9ffb502560ac7ea9c17da26c,116.08038018386269,39.72315670951753,0,29,2018-07-23 02:28:40,2018-07-23 02:28:40
446,阎村东,fabf32487c9b8287b817e7db,116.094071684837,39.72766711735312,1,29,2018-07-23 02:28:40,2018-07-23 02:28:40
447,北安河,c74820aaf87c3b266c476023,116.12402228810407,40.06647048923657,1,30,2018-07-23 02:28:40,2018-07-23 02:28:40
448,温阳路,5da91083893b370958f6beda,116.15521183575909,40.06720196153249,1,30,2018-07-23 02:28:40,2018-07-23 02:28:40
449,稻香湖路,0dfcb1edc4f3013b0869d919,116.18210644711003,40.06746330308234,1,30,2018-07-23 02:28:40,2018-07-23 02:28:40
450,屯佃,c74e42eec82ef46803294fcc,116.20973655860757,40.06719952014224,1,30,2018-07-23 02:28:40,2018-07-23 02:28:40
451,永丰,b3f79d48a241a32583a00cf6,116.23214172810015,40.07061955612978,1,30,2018-07-23 02:28:40,2018-07-23 02:28:40
452,永丰南,6c82cc5225e9b19597ec8463,116.24205921598768,40.06448435997888,0,30,2018-07-23 02:28:40,2018-07-23 02:28:40
453,西北旺,67b4fafcc9ddfe4eca291538,116.25159710433716,40.04794733481666,1,30,2018-07-23 02:28:40,2018-07-23 02:28:40
454,马连洼,c8de39b1c4139234c056ac9d,116.26683661721319,40.03122239826917,0,30,2018-07-23 02:28:40,2018-07-23 02:28:40
455,农大南路,69c5f4dad09d990641d63e18,116.27627014328,40.02024310978039,0,30,2018-07-23 02:28:40,2018-07-23 02:28:40
456,西苑,e3999615048ee296a2d2302e,116.28654741200646,39.997210882234654,0,30,2018-07-23 02:28:40,2018-07-23 02:28:40
457,积水潭,2b65945565ebb27fcc04efdf,116.36649349116436,39.94734016369496,0,31,2018-07-23 02:28:40,2018-07-23 02:28:40
458,鼓楼大街,ce79c3ec3431f54d057ce8df,116.38732094224417,39.94763503142572,0,31,2018-07-23 02:28:40,2018-07-23 02:28:40
459,安定门,9ec0923673033c35a31de9df,116.40196705417554,39.947720393020184,0,31,2018-07-23 02:28:40,2018-07-23 02:28:40
460,雍和宫,ce1ad504ba7b9a549c82eadf,116.41058087407713,39.947948389852634,0,31,2018-07-23 02:28:40,2018-07-23 02:28:40
461,东直门,8a281c7c1c1aa5cb09f5ebdf,116.42755385286908,39.9400026675443,0,31,2018-07-23 02:28:40,2018-07-23 02:28:40
462,东四十条,4250ba1d238530bcea12e4df,116.42790413712903,39.9325317764419,0,31,2018-07-23 02:28:40,2018-07-23 02:28:40
463,朝阳门,eb318582b6f2d35bac31e5df,116.42833389456052,39.923344120001026,0,31,2018-07-23 02:28:40,2018-07-23 02:28:40
464,建国门,d5ae10f55515957842afe6df,116.42956056191954,39.907225411800006,0,31,2018-07-23 02:28:40,2018-07-23 02:28:40
465,北京站,43d9f31213367be6b917e7df,116.42089849438332,39.903679318805345,0,31,2018-07-23 02:28:40,2018-07-23 02:28:40
466,崇文门,a13eb531fda8805e9022e0df,116.41121680356936,39.89975612998964,0,31,2018-07-23 02:28:40,2018-07-23 02:28:40
467,前门,e01d5baf0610a96b2802e1df,116.3916551242471,39.898786322126284,0,31,2018-07-23 02:28:40,2018-07-23 02:28:40
468,和平门,0f83a0172f25114bd52ce2df,116.37797131149416,39.89873603193724,0,31,2018-07-23 02:28:40,2018-07-23 02:28:40
469,宣武门,f73b89229705ec65d33ce3df,116.36815951992887,39.898422448504974,0,31,2018-07-23 02:28:40,2018-07-23 02:28:40
470,长椿街,df0e31026a2bea753717dcdf,116.35717392256312,39.898094092509716,0,31,2018-07-23 02:28:40,2018-07-23 02:28:40
471,复兴门,782ecc2c6c3b0e5e09ccdddf,116.35039006646905,39.905894372548204,0,31,2018-07-23 02:28:40,2018-07-23 02:28:40
472,阜成门,8400ca3c881030859f95dedf,116.35007119832808,39.92240441435952,0,31,2018-07-23 02:28:40,2018-07-23 02:28:40
473,车公庄,81102e17b6cba6dc4f2fdfdf,116.34970097479493,39.93139501564097,0,31,2018-07-23 02:28:40,2018-07-23 02:28:40
474,西直门,538400116f2a781d240bd0df,116.3493623484428,39.93891905754455,0,31,2018-07-23 02:28:40,2018-07-23 02:28:40
475,积水潭,025c390223e487e1d1ff23de,116.36649349116436,39.94734016369496,1,31,2018-07-23 02:28:40,2018-07-23 02:28:40
476,东直门,1903b00db66e3574c8c3dbdf,116.42961309886729,39.94041918222428,0,32,2018-07-23 02:28:40,2018-07-23 02:28:40
477,三元桥,5145153d77c431e11911d5df,116.45091434092531,39.96033063763264,0,32,2018-07-23 02:28:40,2018-07-23 02:28:40
478,T3航站楼,5511d1c3b7af2058d02dd6df,116.60938343567094,40.051752614968876,1,32,2018-07-23 02:28:40,2018-07-23 02:28:40
479,T2航站楼,92ef11a8a616e9644154d7df,116.58716396317016,40.07871543405109,1,32,2018-07-23 02:28:40,2018-07-23 02:28:40
480,三元桥,cab9562f160a30200c3ddadf,116.45091434092531,39.96033063763264,0,32,2018-07-23 02:28:40,2018-07-23 02:28:40
481,东直门,fe211069b33af18a08a8d4df,116.42961309886729,39.94041918222428,0,32,2018-07-23 02:28:40,2018-07-23 02:28:40
482,苹果园,ff9fdb36fe0574244c5547d9,116.17187317208786,39.925032086949,1,33,2018-07-23 02:28:40,2018-07-23 02:28:40
483,古城,291c5802f26a751cbca240d9,116.18443370190056,39.90614225290117,1,33,2018-07-23 02:28:40,2018-07-23 02:28:40
484,八角游乐园,ad28546df35285eb851541d9,116.2066995516292,39.90615510649407,1,33,2018-07-23 02:28:40,2018-07-23 02:28:40
485,八宝山,a047555503a5bc5cbc4842d9,116.22965765259262,39.90620081055922,1,33,2018-07-23 02:28:40,2018-07-23 02:28:40
486,玉泉路,a27fa5a23a128501177643d9,116.2469653596436,39.906233795091524,1,33,2018-07-23 02:28:40,2018-07-23 02:28:40
487,五棵松,53889c15034f2e3f58bbbcde,116.26801186509907,39.906282126233634,1,33,2018-07-23 02:28:40,2018-07-23 02:28:40
488,万寿路,753fa548a87161f27e29bdde,116.28908667048543,39.90622249897407,1,33,2018-07-23 02:28:40,2018-07-23 02:28:40
489,公主坟,4d620e76e7bc47605af6bede,116.3039989408846,39.90623975113613,1,33,2018-07-23 02:28:40,2018-07-23 02:28:40
490,军事博物馆,e55c41bbc12e63bf8405bfde,116.31766882826649,39.90618304559745,1,33,2018-07-23 02:28:40,2018-07-23 02:28:40
491,木樨地,ab916729e5f1bd4cf703b8de,116.33134341146514,39.90615629519825,1,33,2018-07-23 02:28:40,2018-07-23 02:28:40
492,南礼士路,8a0343f63b02ce4a6c20b9de,116.34645837753388,39.905909999756624,1,33,2018-07-23 02:28:40,2018-07-23 02:28:40
493,复兴门,afdc9d0548045569f23cbade,116.35163021422001,39.90588418124129,1,33,2018-07-23 02:28:40,2018-07-23 02:28:40
494,西单,722fee03d327cb7527d2bbde,116.37075600644198,39.90584451483356,1,33,2018-07-23 02:28:40,2018-07-23 02:28:40
495,天安门西,002975204d3b1e9b9968b4de,116.3854287956162,39.90606533292653,1,33,2018-07-23 02:28:40,2018-07-23 02:28:40
496,天安门东,940aeb3c98d5a0218a2fb5de,116.39523526771966,39.90633173790198,1,33,2018-07-23 02:28:40,2018-07-23 02:28:40
497,王府井,0b163ed2266fb36677e5b6de,116.40516039641057,39.906707510301025,1,33,2018-07-23 02:28:40,2018-07-23 02:28:40
498,东单,ddf8806835284eacd718b7de,116.41333318708624,39.906922494524444,1,33,2018-07-23 02:28:40,2018-07-23 02:28:40
499,建国门,7606e1f69a457d80f7231014,116.42810344299592,39.907196287628835,0,33,2018-07-23 02:28:40,2018-07-23 02:28:40
500,永安里,76056ee5681fc6473804b1de,116.44430021640747,39.90716797028635,1,33,2018-07-23 02:28:40,2018-07-23 02:28:40
501,国贸,8acfce184009014dfb42b2de,116.45390044595118,39.907137947923246,0,33,2018-07-23 02:28:40,2018-07-23 02:28:40
502,大望路,2932e60e8703c20b0b5cb3de,116.46969683309717,39.9070652576349,1,33,2018-07-23 02:28:40,2018-07-23 02:28:40
503,四惠,0024210444453215c256acde,116.48941449309979,39.907546237131946,1,33,2018-07-23 02:28:40,2018-07-23 02:28:40
504,四惠东,382fe242b45bfb1ff80cadde,116.5100544420666,39.90743867693119,1,33,2018-07-23 02:28:40,2018-07-23 02:28:40
505,宋家庄,af604c0f70d73d34f5eafc1d,116.42219177781473,39.84448772621784,0,34,2018-07-23 02:28:40,2018-07-23 02:28:40
506,刘家窑,0cc8a7a86ef8036b33f71dde,116.41586678933739,39.856153304908844,1,34,2018-07-23 02:28:40,2018-07-23 02:28:40
507,蒲黄榆,2f83c8ff85250abeb65f1ede,116.41548451778777,39.86414720918894,1,34,2018-07-23 02:28:40,2018-07-23 02:28:40
508,天坛东门,43d423228cf08f16d5851fde,116.41469629266136,39.8809321712804,1,34,2018-07-23 02:28:40,2018-07-23 02:28:40
509,磁器口,8553a45e3cd9012dd518b7d5,116.41265755257035,39.89174814659645,0,34,2018-07-23 02:28:40,2018-07-23 02:28:40
510,崇文门,a7dcaf5f6a82e35a960319de,116.41232455805824,39.89893439348184,0,34,2018-07-23 02:28:40,2018-07-23 02:28:40
511,东单,2374cc856514af4a29201ade,116.41183307870327,39.90689947397251,0,34,2018-07-23 02:28:40,2018-07-23 02:28:40
512,灯市口,43aec313290410696e3e1bde,116.41151413775007,39.9159954718243,1,34,2018-07-23 02:28:40,2018-07-23 02:28:40
513,东四,4d388f0396275777c06c14de,116.41128447581752,39.92314878583586,1,34,2018-07-23 02:28:40,2018-07-23 02:28:40
514,张自忠路,0e283020d139f925c82915de,116.41092811991818,39.93229837932449,1,34,2018-07-23 02:28:40,2018-07-23 02:28:40
515,北新桥,b00b773e7f6bf160f5b916de,116.41064489982851,39.939490929236456,1,34,2018-07-23 02:28:40,2018-07-23 02:28:40
516,雍和宫,f415d96c772eccf023f017de,116.41034087799547,39.947025518856854,0,34,2018-07-23 02:28:40,2018-07-23 02:28:40
517,和平里北街,5b47d1294abe1ab9f52310de,116.41237283757008,39.95715119936008,1,34,2018-07-23 02:28:40,2018-07-23 02:28:40
518,和平西桥,5402ecb99cf7cc6a1c1d11de,116.41177693561787,39.96688902297208,1,34,2018-07-23 02:28:40,2018-07-23 02:28:40
519,惠新西街南口,68923af04a242554326212de,116.41134868551396,39.975653842400014,1,34,2018-07-23 02:28:40,2018-07-23 02:28:40
520,惠新西街北口,bddbec23a31a0b2bfa2213de,116.41083732276675,39.98651991356558,1,34,2018-07-23 02:28:40,2018-07-23 02:28:40
521,大屯路东,6a08051d8d65c36b82a00cde,116.41119853058603,40.00248209828724,1,34,2018-07-23 02:28:40,2018-07-23 02:28:40
522,北苑路北,bc362b624525bbe9c5f50dde,116.41184907843815,40.029212572383145,1,34,2018-07-23 02:28:40,2018-07-23 02:28:40
523,立水桥南,9349e3223da7fcbc87420ede,116.40831873439194,40.0404864430308,1,34,2018-07-23 02:28:40,2018-07-23 02:28:40
524,立水桥,58099ba07af2be0baf080fde,116.40614187641691,40.051631410315466,1,34,2018-07-23 02:28:40,2018-07-23 02:28:40
525,天通苑南,218bdcf5384596412eb908de,116.40645723616468,40.06506930614057,1,34,2018-07-23 02:28:40,2018-07-23 02:28:40
526,天通苑,61de9e42100f17f0611809de,116.40656725737442,40.073793612724906,1,34,2018-07-23 02:28:40,2018-07-23 02:28:40
527,天通苑北,2269b60891be585133870ade,116.40671032674535,40.08191080637299,1,34,2018-07-23 02:28:40,2018-07-23 02:28:40
528,四惠东,e60232fc0e4b738515b54bde,116.5100544420666,39.90743867693119,0,35,2018-07-23 02:28:40,2018-07-23 02:28:40
529,四惠,ccd7a84cf5cb2cfcc23644de,116.48941449309979,39.907546237131946,0,35,2018-07-23 02:28:40,2018-07-23 02:28:40
530,大望路,596753ccaab2fb7f410245de,116.46969683309717,39.9070652576349,0,35,2018-07-23 02:28:40,2018-07-23 02:28:40
531,国贸,a3e70cb57d31784b4d6d46de,116.45390044595118,39.907137947923246,0,35,2018-07-23 02:28:40,2018-07-23 02:28:40
532,永安里,ff9edb36fe0574244c5547de,116.44430021640747,39.90716797028635,0,35,2018-07-23 02:28:40,2018-07-23 02:28:40
533,建国门,72e4fcccdb849a30a5da3933,116.42810344299592,39.907196287628835,0,35,2018-07-23 02:28:40,2018-07-23 02:28:40
534,东单,ad29546df35285eb851541de,116.41333318708624,39.906922494524444,0,35,2018-07-23 02:28:40,2018-07-23 02:28:40
535,王府井,a046555503a5bc5cbc4842de,116.40516039641057,39.906707510301025,0,35,2018-07-23 02:28:40,2018-07-23 02:28:40
536,天安门东,a27ea5a23a128501177643de,116.39523526771966,39.90633173790198,0,35,2018-07-23 02:28:40,2018-07-23 02:28:40
537,天安门西,53899c15034f2e3f58bbbcdf,116.3854287956162,39.90606533292653,0,35,2018-07-23 02:28:40,2018-07-23 02:28:40
538,西单,753ea548a87161f27e29bddf,116.37075600644198,39.90584451483356,0,35,2018-07-23 02:28:40,2018-07-23 02:28:40
539,复兴门,4d630e76e7bc47605af6bedf,116.35163021422001,39.90588418124129,0,35,2018-07-23 02:28:40,2018-07-23 02:28:40
540,南礼士路,e55d41bbc12e63bf8405bfdf,116.34645837753388,39.905909999756624,0,35,2018-07-23 02:28:40,2018-07-23 02:28:40
541,木樨地,ab906729e5f1bd4cf703b8df,116.33134341146514,39.90615629519825,0,35,2018-07-23 02:28:40,2018-07-23 02:28:40
542,军事博物馆,8a0243f63b02ce4a6c20b9df,116.31766882826649,39.90618304559745,0,35,2018-07-23 02:28:40,2018-07-23 02:28:40
543,公主坟,afdd9d0548045569f23cbadf,116.3039989408846,39.90623975113613,0,35,2018-07-23 02:28:40,2018-07-23 02:28:40
544,万寿路,722eee03d327cb7527d2bbdf,116.28908667048543,39.90622249897407,0,35,2018-07-23 02:28:40,2018-07-23 02:28:40
545,五棵松,002875204d3b1e9b9968b4df,116.26801186509907,39.906282126233634,0,35,2018-07-23 02:28:40,2018-07-23 02:28:40
546,玉泉路,940beb3c98d5a0218a2fb5df,116.2469653596436,39.906233795091524,0,35,2018-07-23 02:28:40,2018-07-23 02:28:40
547,八宝山,0b173ed2266fb36677e5b6df,116.22965765259262,39.90620081055922,0,35,2018-07-23 02:28:40,2018-07-23 02:28:40
548,八角游乐园,ddf9806835284eacd718b7df,116.2066995516292,39.90615510649407,0,35,2018-07-23 02:28:40,2018-07-23 02:28:40
549,古城,6243932fc8e2ee51ff0eb0df,116.18443370190056,39.90614225290117,0,35,2018-07-23 02:28:40,2018-07-23 02:28:40
550,苹果园,76046ee5681fc6473804b1df,116.17187317208786,39.925032086949,0,35,2018-07-23 02:28:40,2018-07-23 02:28:40
551,土桥,8acece184009014dfb42b2df,116.68042355573407,39.87074290975887,0,36,2018-07-23 02:28:40,2018-07-23 02:28:40
552,临河里,2933e60e8703c20b0b5cb3df,116.67296850545962,39.87425929292793,0,36,2018-07-23 02:28:40,2018-07-23 02:28:40
553,梨园,0025210444453215c256acdf,116.66281344561742,39.88257537950331,0,36,2018-07-23 02:28:40,2018-07-23 02:28:40
554,九棵树,3828e242b45bfb1ff80caddf,116.65161690810748,39.889152482860034,0,36,2018-07-23 02:28:40,2018-07-23 02:28:40
555,果园,fa6e125c7d51c145374aaedf,116.64080711682169,39.89225338867779,0,36,2018-07-23 02:28:40,2018-07-23 02:28:40
556,通州北苑,34c835fa9be7ff62c07da2df,116.63140871976067,39.90265727273648,0,36,2018-07-23 02:28:40,2018-07-23 02:28:40
557,八里桥,22d63de0792cf934912ca3df,116.61290352169331,39.90502353232383,0,36,2018-07-23 02:28:40,2018-07-23 02:28:40
558,管庄,2bccdf2b7f7aa865f7c59cdf,116.59344201933253,39.908056938185304,0,36,2018-07-23 02:28:40,2018-07-23 02:28:40
559,双桥,d607d97d2e2bce8caa059ddf,116.57092370202515,39.90917861700325,0,36,2018-07-23 02:28:40,2018-07-23 02:28:40
560,传媒大学,d151882c48c2934cd3f49edf,116.54901105860775,39.9081980210833,0,36,2018-07-23 02:28:40,2018-07-23 02:28:40
561,高碑店,8300eec51502eabd293a9fdf,116.52569573115063,39.90836642279083,0,36,2018-07-23 02:28:40,2018-07-23 02:28:40
562,四惠东,e4e9b3056cf31073266e98df,116.50995309760084,39.9073868112236,0,36,2018-07-23 02:28:41,2018-07-23 02:28:41
563,四惠,be29caf4963d1f271ee999df,116.48946750815252,39.907477660423936,0,36,2018-07-23 02:28:41,2018-07-23 02:28:41
564,巴沟,611770493252e3a58b36eedf,116.28802480443031,39.97295366897415,0,37,2018-07-23 02:28:41,2018-07-23 02:28:41
565,火器营,a503451e54ffab581cf74dcc,116.2831557902576,39.9648322495286,1,37,2018-07-23 02:28:41,2018-07-23 02:28:41
566,长春桥,bf0373f82d1625bed7b74ecc,116.28799175963748,39.95737221969343,1,37,2018-07-23 02:28:41,2018-07-23 02:28:41
567,车道沟,88e50a11a3f0eefe00294fcc,116.28781644830055,39.947392528628214,1,37,2018-07-23 02:28:41,2018-07-23 02:28:41
568,慈寿寺,f60c84f768b039602bfc48cc,116.28880660012098,39.931960963056724,0,37,2018-07-23 02:28:41,2018-07-23 02:28:41
569,西钓鱼台,79ea4fb7bf2e12b5b14c49cc,116.29171484123684,39.92221862838439,1,37,2018-07-23 02:28:41,2018-07-23 02:28:41
570,公主坟,b1aa982994fb88054acc4acc,116.30424208150151,39.90625654841691,0,37,2018-07-23 02:28:41,2018-07-23 02:28:41
571,莲花桥,6734b3fc0e4b738515b54bcc,116.30423840241072,39.89681924530807,1,37,2018-07-23 02:28:41,2018-07-23 02:28:41
572,六里桥,43e1294cf5cb2cfcc23644cc,116.297071141011,39.87904459552199,0,37,2018-07-23 02:28:41,2018-07-23 02:28:41
573,西局,d851d2ccaab2fb7f410245cc,116.29736245739038,39.86457944246805,1,37,2018-07-23 02:28:41,2018-07-23 02:28:41
574,泥洼,a4e20fcaa35f3ba55c0d02cd,116.29826775554126,39.857337384458745,1,37,2018-07-23 02:28:41,2018-07-23 02:28:41
575,丰台站,b8d48458bdeb6544e11103cd,116.29893190676756,39.84867614051995,1,37,2018-07-23 02:28:41,2018-07-23 02:28:41
576,首经贸,688753fadf6f7773a9175acc,116.31395437099967,39.84321327643014,1,37,2018-07-23 02:28:41,2018-07-23 02:28:41
577,纪家庙,9ce7f868f13d905e73455bcc,116.32679417311059,39.84314315796826,1,37,2018-07-23 02:28:41,2018-07-23 02:28:41
578,草桥,3875d63a16104a0cb44f54cc,116.34647421278459,39.84452622458559,1,37,2018-07-23 02:28:41,2018-07-23 02:28:41
579,角门西,17273117cc428d06b62655cc,116.36494168778164,39.8445338436613,0,37,2018-07-23 02:28:41,2018-07-23 02:28:41
580,角门东,2c469aece30ad8582ab97ccd,116.38011099899282,39.84383213055609,1,37,2018-07-23 02:28:41,2018-07-23 02:28:41
581,大红门,f30aeb450b488f6fa6c756cc,116.3936324096387,39.844090814589194,1,37,2018-07-23 02:28:41,2018-07-23 02:28:41
582,石榴庄,28582c4f09219f8eaf0457cc,116.40791380011633,39.84444787501759,1,37,2018-07-23 02:28:41,2018-07-23 02:28:41
583,宋家庄,fff476c297ed8de5c17da287,116.42219385691047,39.84454929821547,0,37,2018-07-23 02:28:41,2018-07-23 02:28:41
584,成寿寺,eb3b3ec71003a249c41e51cc,116.44152387514447,39.844369004334744,1,37,2018-07-23 02:28:41,2018-07-23 02:28:41
585,分钟寺,f8da37042407fd57dd1e52cc,116.4475474770285,39.85085737995703,1,37,2018-07-23 02:28:41,2018-07-23 02:28:41
586,十里河,f01903007b19e457ebf853cc,116.4529487600068,39.864571898689036,0,37,2018-07-23 02:28:41,2018-07-23 02:28:41
587,潘家园,fb1d5c1e6219d2b192114ccc,116.4549442793323,39.874735479571996,1,37,2018-07-23 02:28:41,2018-07-23 02:28:41
588,劲松,d6f047bece4c4917b03c81df,116.45521709114786,39.88302815125366,0,37,2018-07-23 02:28:41,2018-07-23 02:28:41
589,双井,7392684bcf598975e9e582df,116.45566766017649,39.89218982429618,0,37,2018-07-23 02:28:41,2018-07-23 02:28:41
590,国贸,c688801de17d0472a21de9b4,116.4555946521711,39.90774622749115,1,37,2018-07-23 02:28:41,2018-07-23 02:28:41
591,金台夕照,5f72a93c56e2c864f5eafcdf,116.45551401792062,39.91597077412913,0,37,2018-07-23 02:28:41,2018-07-23 02:28:41
592,呼家楼,8010f0e54e2acca33813fddf,116.45547106127736,39.921991630444936,0,37,2018-07-23 02:28:41,2018-07-23 02:28:41
593,团结湖,d8c9e82d4aed015a5ed4fedf,116.45557109877703,39.93239258324919,0,37,2018-07-23 02:28:41,2018-07-23 02:28:41
594,农业展览馆,c301ecea8714679d55bfffdf,116.45600449544052,39.93999709575558,0,37,2018-07-23 02:28:41,2018-07-23 02:28:41
595,亮马桥,c6c62113e1d36cf6ef74f8df,116.45596820150496,39.94801314536559,0,37,2018-07-23 02:28:41,2018-07-23 02:28:41
596,三元桥,0c3f47d4eab8d63de315f9df,116.45062940177505,39.95940985029149,0,37,2018-07-23 02:28:41,2018-07-23 02:28:41
597,太阳宫,6bf84cbf5073da5cea56fadf,116.44124545157982,39.97126764417913,0,37,2018-07-23 02:28:41,2018-07-23 02:28:41
598,芍药居,6393f6745c12d31fc7effbdf,116.43148616105339,39.97581311128023,0,37,2018-07-23 02:28:41,2018-07-23 02:28:41
599,惠新西街南口,d858fa155551fea63786f4df,116.41134868551396,39.975653842400014,0,37,2018-07-23 02:28:41,2018-07-23 02:28:41
600,安贞门,db39f35678e80ecf05fef5df,116.39971836685788,39.97557752559846,0,37,2018-07-23 02:28:41,2018-07-23 02:28:41
601,北土城,d37adeef88813cb716c8f6df,116.38801498351982,39.97551474610658,0,37,2018-07-23 02:28:41,2018-07-23 02:28:41
602,健德门,fdc32e86baf92f819e09f7df,116.37513342969207,39.975241787064334,0,37,2018-07-23 02:28:41,2018-07-23 02:28:41
603,牡丹园,0caa1cfea9cfa740cb09f0df,116.36371348052083,39.97499040139898,0,37,2018-07-23 02:28:41,2018-07-23 02:28:41
604,西土城,39d20fc8210ef240754ff1df,116.34769393316651,39.97492999219945,0,37,2018-07-23 02:28:41,2018-07-23 02:28:41
605,知春路,2be48709740e4c06203bf2df,116.33580233841549,39.97507569890685,0,37,2018-07-23 02:28:41,2018-07-23 02:28:41
606,知春里,a025d209ca4819726949f3df,116.32334260035346,39.975049386140874,0,37,2018-07-23 02:28:41,2018-07-23 02:28:41
607,海淀黄庄,f4256c4f9f3c50008d55ecdf,116.31168081839458,39.97471652433697,0,37,2018-07-23 02:28:41,2018-07-23 02:28:41
608,苏州街,3563393bd64eb41cdaeceddf,116.30019479271823,39.97436817477212,0,37,2018-07-23 02:28:41,2018-07-23 02:28:41
609,巴沟,33f2c40d5e1613f0b3077dcd,116.28802480443031,39.97295366897415,0,37,2018-07-23 02:28:41,2018-07-23 02:28:41
610,西直门,1904b00db66e3574c8c3dbde,116.3493623484428,39.93891905754455,0,38,2018-07-23 02:28:41,2018-07-23 02:28:41
611,车公庄,fe261069b33af18a08a8d4de,116.34970097479493,39.93139501564097,1,38,2018-07-23 02:28:41,2018-07-23 02:28:41
612,阜成门,5142153d77c431e11911d5de,116.35007119832808,39.92240441435952,1,38,2018-07-23 02:28:41,2018-07-23 02:28:41
613,复兴门,5516d1c3b7af2058d02dd6de,116.35039006646905,39.905894372548204,0,38,2018-07-23 02:28:41,2018-07-23 02:28:41
614,长椿街,92e811a8a616e9644154d7de,116.35717392256312,39.898094092509716,1,38,2018-07-23 02:28:41,2018-07-23 02:28:41
615,宣武门,538300116f2a781d240bd0de,116.36815951992887,39.898422448504974,1,38,2018-07-23 02:28:41,2018-07-23 02:28:41
616,和平门,453ac92dfe531d422911d1de,116.37797131149416,39.89873603193724,1,38,2018-07-23 02:28:41,2018-07-23 02:28:41
617,前门,8d0658549b0c105878dbd2de,116.3916551242471,39.898786322126284,1,38,2018-07-23 02:28:41,2018-07-23 02:28:41
618,崇文门,1f7f3d0b961641927269d3de,116.41121680356936,39.89975612998964,1,38,2018-07-23 02:28:41,2018-07-23 02:28:41
619,北京站,7b203011c7dc4b206da3ccde,116.42089849438332,39.903679318805345,1,38,2018-07-23 02:28:41,2018-07-23 02:28:41
620,建国门,493a61dbcd6e54eaaaf0cdde,116.42956056191954,39.907225411800006,1,38,2018-07-23 02:28:41,2018-07-23 02:28:41
621,朝阳门,19f06b69d2a493b92a06cede,116.42833389456052,39.923344120001026,1,38,2018-07-23 02:28:41,2018-07-23 02:28:41
622,东四十条,269987ecaf8ffcb9445726de,116.42790413712903,39.9325317764419,1,38,2018-07-23 02:28:41,2018-07-23 02:28:41
623,东直门,14c709887af77d1e8c7727de,116.42755385286908,39.9400026675443,0,38,2018-07-23 02:28:41,2018-07-23 02:28:41
624,雍和宫,9ba3dcf0fb50b53e200220de,116.41058087407713,39.947948389852634,1,38,2018-07-23 02:28:41,2018-07-23 02:28:41
625,安定门,49db5d573370194b9ce321de,116.40196705417554,39.947720393020184,1,38,2018-07-23 02:28:41,2018-07-23 02:28:41
626,鼓楼大街,c97c95779f05a5aabea822de,116.38732094224417,39.94763503142572,1,38,2018-07-23 02:28:41,2018-07-23 02:28:41
627,积水潭,453dc92dfe531d422911d1df,116.36649349116436,39.94734016369496,0,38,2018-07-23 02:28:41,2018-07-23 02:28:41
628,西直门,643b10cc20927666a90dd8df,116.3493623484428,39.93891905754455,0,38,2018-07-23 02:28:41,2018-07-23 02:28:41
629,天通苑北,c6d8303a996927a041ab9adf,116.40671032674535,40.08191080637299,0,39,2018-07-23 02:28:41,2018-07-23 02:28:41
630,天通苑,3f163f6ea1ee78e232169bdf,116.40656725737442,40.073793612724906,0,39,2018-07-23 02:28:41,2018-07-23 02:28:41
631,天通苑南,314207e9feac0b5f1d3894df,116.40645723616468,40.06506930614057,0,39,2018-07-23 02:28:41,2018-07-23 02:28:41
632,立水桥,06c558ab8d112471cb1b95df,116.40614187641691,40.051631410315466,0,39,2018-07-23 02:28:41,2018-07-23 02:28:41
633,立水桥南,58872b16a23ff2527af796df,116.40831873439194,40.0404864430308,0,39,2018-07-23 02:28:41,2018-07-23 02:28:41
634,北苑路北,283a0438741c43beea1e97df,116.41184907843815,40.029212572383145,0,39,2018-07-23 02:28:41,2018-07-23 02:28:41
635,大屯路东,0614d21bc5f0d35717a190df,116.41119853058603,40.00248209828724,0,39,2018-07-23 02:28:41,2018-07-23 02:28:41
636,惠新西街北口,d73763f755192ee8dad891df,116.41083732276675,39.98651991356558,0,39,2018-07-23 02:28:41,2018-07-23 02:28:41
637,惠新西街南口,67dbf31ea8a6e39141e192df,116.41134868551396,39.975653842400014,0,39,2018-07-23 02:28:41,2018-07-23 02:28:41
638,和平西桥,f4320ea165df78a85a1093df,116.41177693561787,39.96688902297208,0,39,2018-07-23 02:28:41,2018-07-23 02:28:41
639,和平里北街,088dc3d8fee6635997f08cdf,116.41237283757008,39.95715119936008,0,39,2018-07-23 02:28:41,2018-07-23 02:28:41
640,雍和宫,faf458e1e517aeb948fc8ddf,116.41034087799547,39.947025518856854,0,39,2018-07-23 02:28:41,2018-07-23 02:28:41
641,北新桥,60cd431028f771b516948edf,116.41064489982851,39.939490929236456,0,39,2018-07-23 02:28:41,2018-07-23 02:28:41
642,张自忠路,783c8ef0f7fb2fddbbdf8fdf,116.41092811991818,39.93229837932449,0,39,2018-07-23 02:28:41,2018-07-23 02:28:41
643,东四,b4dc51fca993829689b988df,116.41128447581752,39.92314878583586,0,39,2018-07-23 02:28:41,2018-07-23 02:28:41
644,灯市口,6cd00f9404d8b0f08d1a89df,116.41151413775007,39.9159954718243,0,39,2018-07-23 02:28:41,2018-07-23 02:28:41
645,东单,33b8a2df36beb45380288adf,116.41183307870327,39.90689947397251,0,39,2018-07-23 02:28:41,2018-07-23 02:28:41
646,崇文门,9df390b9321db961dcee8bdf,116.41232455805824,39.89893439348184,0,39,2018-07-23 02:28:41,2018-07-23 02:28:41
647,磁器口,3921648b88d42663aecb66ff,116.41265755257035,39.89174814659645,0,39,2018-07-23 02:28:41,2018-07-23 02:28:41
648,天坛东门,a536992863e9afa5fadc85df,116.41469629266136,39.8809321712804,0,39,2018-07-23 02:28:41,2018-07-23 02:28:41
649,蒲黄榆,a904c5ee29ebc3955ebe86df,116.41548451778777,39.86414720918894,0,39,2018-07-23 02:28:41,2018-07-23 02:28:41
650,刘家窑,f6c28fec45db67f7714b87df,116.41586678933739,39.856153304908844,0,39,2018-07-23 02:28:41,2018-07-23 02:28:41
651,宋家庄,a6a7a3f6a2c48379be4842e2,116.42219177781473,39.84448772621784,0,39,2018-07-23 02:28:41,2018-07-23 02:28:41
652,东直门,d156882c48c2934cd3f49ede,116.42897091055565,39.941368797021205,0,40,2018-07-23 02:28:41,2018-07-23 02:28:41
653,柳芳,fdc42e86baf92f819e09f7de,116.42651819221781,39.95676346589514,0,40,2018-07-23 02:28:41,2018-07-23 02:28:41
654,光熙门,0cad1cfea9cfa740cb09f0de,116.42560073391532,39.96711051338991,0,40,2018-07-23 02:28:41,2018-07-23 02:28:41
655,芍药居,39d50fc8210ef240754ff1de,116.43008443123907,39.97675025962162,0,40,2018-07-23 02:28:41,2018-07-23 02:28:41
656,望京西,2be38709740e4c06203bf2de,116.44093827015767,39.99330863117858,0,40,2018-07-23 02:28:41,2018-07-23 02:28:41
657,北苑,a022d209ca4819726949f3de,116.4285625111418,40.0415705696309,0,40,2018-07-23 02:28:41,2018-07-23 02:28:41
658,立水桥,9b016de9feac0b5f1d389463,116.40511549944668,40.05147861808802,0,40,2018-07-23 02:28:41,2018-07-23 02:28:41
659,霍营,3564393bd64eb41cdaecedde,116.35406635312252,40.06923692657659,0,40,2018-07-23 02:28:41,2018-07-23 02:28:41
660,回龙观,611070493252e3a58b36eede,116.32955429528103,40.06944779956837,0,40,2018-07-23 02:28:41,2018-07-23 02:28:41
661,龙泽,2b62945565ebb27fcc04efde,116.31350222617387,40.069528400261525,0,40,2018-07-23 02:28:41,2018-07-23 02:28:41
662,西二旗,4e2e5e35444596fbf4eafc53,116.30011552949875,40.051597825597774,1,40,2018-07-23 02:28:41,2018-07-23 02:28:41
663,上地,9ec7923673033c35a31de9de,116.31416791073825,40.0315926428221,0,40,2018-07-23 02:28:41,2018-07-23 02:28:41
664,五道口,ce1dd504ba7b9a549c82eade,116.33164311866044,39.991586938468366,0,40,2018-07-23 02:28:41,2018-07-23 02:28:41
665,知春路,8a2f1c7c1c1aa5cb09f5ebde,116.33385198665502,39.97508701931057,0,40,2018-07-23 02:28:41,2018-07-23 02:28:41
666,大钟寺,4257ba1d238530bcea12e4de,116.33903299501391,39.96503259733579,0,40,2018-07-23 02:28:41,2018-07-23 02:28:41
667,西直门,eb368582b6f2d35bac31e5de,116.34700731637632,39.94038511322142,0,40,2018-07-23 02:28:41,2018-07-23 02:28:41
668,车道沟,ccbf1d15034f2e3f58bbbccd,116.28781644830055,39.947392528628214,0,41,2018-07-23 02:28:41,2018-07-23 02:28:41
669,长春桥,f4082448a87161f27e29bdcd,116.28799175963748,39.95737221969343,0,41,2018-07-23 02:28:41,2018-07-23 02:28:41
670,火器营,ce558f76e7bc47605af6becd,116.2831557902576,39.9648322495286,0,41,2018-07-23 02:28:41,2018-07-23 02:28:41
671,巴沟,092337b9de1f0ace70210bde,116.28802480443031,39.97295366897415,0,41,2018-07-23 02:28:41,2018-07-23 02:28:41
672,苏州街,899278188c804968863304de,116.30019479271823,39.97436817477212,1,41,2018-07-23 02:28:41,2018-07-23 02:28:41
673,海淀黄庄,c9332a87cf26bf7a14c905de,116.31168081839458,39.97471652433697,1,41,2018-07-23 02:28:41,2018-07-23 02:28:41
674,知春里,9aac692139342d808afc06de,116.32334260035346,39.975049386140874,1,41,2018-07-23 02:28:41,2018-07-23 02:28:41
675,知春路,da0a9f33abceb3b597ca07de,116.33580233841549,39.97507569890685,0,41,2018-07-23 02:28:41,2018-07-23 02:28:41
676,西土城,2d180dc935fbae831c5800de,116.34769393316651,39.97492999219945,1,41,2018-07-23 02:28:41,2018-07-23 02:28:41
677,牡丹园,b8e293fc28cd251102ec01de,116.36371348052083,39.97499040139898,1,41,2018-07-23 02:28:41,2018-07-23 02:28:41
678,健德门,27d78ecaa35f3ba55c0d02de,116.37513342969207,39.975241787064334,1,41,2018-07-23 02:28:41,2018-07-23 02:28:41
679,北土城,39e10558bdeb6544e11103de,116.38801498351982,39.97551474610658,1,41,2018-07-23 02:28:41,2018-07-23 02:28:41
680,安贞门,b3731bece30ad8582ab97cde,116.39971836685788,39.97557752559846,1,41,2018-07-23 02:28:41,2018-07-23 02:28:41
681,惠新西街南口,a96ead4f09219f8eaf0457de,116.41134868551396,39.975653842400014,0,41,2018-07-23 02:28:41,2018-07-23 02:28:41
682,芍药居,6f64af2619c0964d9b0050de,116.43148616105339,39.97581311128023,0,41,2018-07-23 02:28:41,2018-07-23 02:28:41
683,太阳宫,6a0dbfc71003a249c41e51de,116.44124545157982,39.97126764417913,1,41,2018-07-23 02:28:41,2018-07-23 02:28:41
684,三元桥,7becb6042407fd57dd1e52de,116.45062940177505,39.95940985029149,1,41,2018-07-23 02:28:41,2018-07-23 02:28:41
685,亮马桥,712f82007b19e457ebf853de,116.45596820150496,39.94801314536559,1,41,2018-07-23 02:28:41,2018-07-23 02:28:41
686,农业展览馆,442bdd1e6219d2b192114cde,116.45600449544052,39.93999709575558,1,41,2018-07-23 02:28:42,2018-07-23 02:28:42
687,团结湖,2435c41e54ffab581cf74dde,116.45557109877703,39.93239258324919,1,41,2018-07-23 02:28:42,2018-07-23 02:28:42
688,呼家楼,3c35f2f82d1625bed7b74ede,116.45547106127736,39.921991630444936,1,41,2018-07-23 02:28:42,2018-07-23 02:28:42
689,金台夕照,09d38b11a3f0eefe00294fde,116.45551401792062,39.91597077412913,1,41,2018-07-23 02:28:42,2018-07-23 02:28:42
690,国贸,5d850532bf32fa9ed7851fb3,116.4555946521711,39.90774622749115,0,41,2018-07-23 02:28:42,2018-07-23 02:28:42
691,双井,f8dcceb7bf2e12b5b14c49de,116.45566766017649,39.89218982429618,1,41,2018-07-23 02:28:42,2018-07-23 02:28:42
692,劲松,329c192994fb88054acc4ade,116.45521709114786,39.88302815125366,1,41,2018-07-23 02:28:42,2018-07-23 02:28:42
693,潘家园,646bc0bbc12e63bf8405bfcd,116.4549442793323,39.874735479571996,0,41,2018-07-23 02:28:42,2018-07-23 02:28:42
694,十里河,2ca6e629e5f1bd4cf703b8cd,116.4529487600068,39.864571898689036,0,41,2018-07-23 02:28:42,2018-07-23 02:28:42
695,分钟寺,0b34c2f63b02ce4a6c20b9cd,116.4475474770285,39.85085737995703,0,41,2018-07-23 02:28:42,2018-07-23 02:28:42
696,成寿寺,2ceb1c0548045569f23cbacd,116.44152387514447,39.844369004334744,0,41,2018-07-23 02:28:42,2018-07-23 02:28:42
697,宋家庄,210a67d5eeebf8736d476078,116.42219385691047,39.84454929821547,0,41,2018-07-23 02:28:42,2018-07-23 02:28:42
698,石榴庄,8f1ef4204d3b1e9b9968b4cd,116.40791380011633,39.84444787501759,0,41,2018-07-23 02:28:42,2018-07-23 02:28:42
699,大红门,153d6a3c98d5a0218a2fb5cd,116.3936324096387,39.844090814589194,0,41,2018-07-23 02:28:42,2018-07-23 02:28:42
700,角门东,6e13791195be8a4e2db17ecd,116.38011099899282,39.84383213055609,0,41,2018-07-23 02:28:42,2018-07-23 02:28:42
701,角门西,8821bfd2266fb36677e5b6cd,116.36494168778164,39.8445338436613,0,41,2018-07-23 02:28:42,2018-07-23 02:28:42
702,草桥,5ccf016835284eacd718b7cd,116.34647421278459,39.84452622458559,0,41,2018-07-23 02:28:42,2018-07-23 02:28:42
703,纪家庙,e575122fc8e2ee51ff0eb0cd,116.32679417311059,39.84314315796826,0,41,2018-07-23 02:28:42,2018-07-23 02:28:42
704,首经贸,f732efe5681fc6473804b1cd,116.31395437099967,39.84321327643014,0,41,2018-07-23 02:28:42,2018-07-23 02:28:42
705,丰台站,d20fb2b90c0014f8b7147fcd,116.29893190676756,39.84867614051995,0,41,2018-07-23 02:28:42,2018-07-23 02:28:42
706,泥洼,1ea72b0792b68e5dffa778cd,116.29826775554126,39.857337384458745,0,41,2018-07-23 02:28:42,2018-07-23 02:28:42
707,西局,20d18db57d31784b4d6d46cc,116.29736245739038,39.86457944246805,0,41,2018-07-23 02:28:42,2018-07-23 02:28:42
708,六里桥,7ea85a36fe0574244c5547cc,116.297071141011,39.87904459552199,0,41,2018-07-23 02:28:42,2018-07-23 02:28:42
709,莲花桥,ae2bd902f26a751cbca240cc,116.30423840241072,39.89681924530807,0,41,2018-07-23 02:28:42,2018-07-23 02:28:42
710,公主坟,2c1fd56df35285eb851541cc,116.30424208150151,39.90625654841691,0,41,2018-07-23 02:28:42,2018-07-23 02:28:42
711,西钓鱼台,2370d45503a5bc5cbc4842cc,116.29171484123684,39.92221862838439,0,41,2018-07-23 02:28:42,2018-07-23 02:28:42
712,慈寿寺,234824a23a128501177643cc,116.28880660012098,39.931960963056724,0,41,2018-07-23 02:28:42,2018-07-23 02:28:42
713,车道沟,8619b5b10813c6ee9ef779cd,116.28781644830055,39.947392528628214,0,41,2018-07-23 02:28:42,2018-07-23 02:28:42
714,四惠,d5a910f55515957842afe6de,116.48946750815252,39.907477660423936,0,42,2018-07-23 02:28:42,2018-07-23 02:28:42
715,四惠东,43def31213367be6b917e7de,116.50995309760084,39.9073868112236,0,42,2018-07-23 02:28:42,2018-07-23 02:28:42
716,高碑店,a139b531fda8805e9022e0de,116.52569573115063,39.90836642279083,1,42,2018-07-23 02:28:42,2018-07-23 02:28:42
717,传媒大学,e01a5baf0610a96b2802e1de,116.54901105860775,39.9081980210833,1,42,2018-07-23 02:28:42,2018-07-23 02:28:42
718,双桥,0f84a0172f25114bd52ce2de,116.57092370202515,39.90917861700325,1,42,2018-07-23 02:28:42,2018-07-23 02:28:42
719,管庄,f73c89229705ec65d33ce3de,116.59344201933253,39.908056938185304,1,42,2018-07-23 02:28:42,2018-07-23 02:28:42
720,八里桥,df0931026a2bea753717dcde,116.61290352169331,39.90502353232383,1,42,2018-07-23 02:28:42,2018-07-23 02:28:42
721,通州北苑,7829cc2c6c3b0e5e09ccddde,116.63140871976067,39.90265727273648,1,42,2018-07-23 02:28:42,2018-07-23 02:28:42
722,果园,8407ca3c881030859f95dede,116.64080711682169,39.89225338867779,1,42,2018-07-23 02:28:42,2018-07-23 02:28:42
723,九棵树,81172e17b6cba6dc4f2fdfde,116.65161690810748,39.889152482860034,1,42,2018-07-23 02:28:42,2018-07-23 02:28:42
724,梨园,643c10cc20927666a90dd8de,116.66281344561742,39.88257537950331,1,42,2018-07-23 02:28:42,2018-07-23 02:28:42
725,临河里,5de78695f02890440969d9de,116.67296850545962,39.87425929292793,1,42,2018-07-23 02:28:42,2018-07-23 02:28:42
726,土桥,cabe562f160a30200c3ddade,116.68042355573407,39.87074290975887,1,42,2018-07-23 02:28:42,2018-07-23 02:28:42
727,西直门,fa69125c7d51c145374aaede,116.34700731637632,39.94038511322142,1,43,2018-07-23 02:28:42,2018-07-23 02:28:42
728,大钟寺,0977db56470b0e033210afde,116.33903299501391,39.96503259733579,1,43,2018-07-23 02:28:42,2018-07-23 02:28:42
729,知春路,c17de10c884d0b59b120a8de,116.33385198665502,39.97508701931057,1,43,2018-07-23 02:28:42,2018-07-23 02:28:42
730,五道口,fc272e4a8d1788696040a9de,116.33164311866044,39.991586938468366,1,43,2018-07-23 02:28:42,2018-07-23 02:28:42
731,上地,32612b100e275909110daade,116.31416791073825,40.0315926428221,1,43,2018-07-23 02:28:42,2018-07-23 02:28:42
732,西二旗,f2f270d359a55dce4107c115,116.30011552949875,40.051597825597774,0,43,2018-07-23 02:28:42,2018-07-23 02:28:42
733,龙泽,b60b7940ae0a139ece06a4de,116.31350222617387,40.069528400261525,1,43,2018-07-23 02:28:42,2018-07-23 02:28:42
734,回龙观,686b080d95d0f74fefe4a5de,116.32955429528103,40.06944779956837,1,43,2018-07-23 02:28:42,2018-07-23 02:28:42
735,霍营,182633d77101d6ad39e4a6de,116.35406635312252,40.06923692657659,1,43,2018-07-23 02:28:42,2018-07-23 02:28:42
736,立水桥,a08632ab8d112471cb1b9563,116.40511549944668,40.05147861808802,0,43,2018-07-23 02:28:42,2018-07-23 02:28:42
737,北苑,c52df6e486e315b324e0a0de,116.4285625111418,40.0415705696309,1,43,2018-07-23 02:28:42,2018-07-23 02:28:42
738,望京西,e3cf20e493fd1da9c62ba1de,116.44093827015767,39.99330863117858,1,43,2018-07-23 02:28:42,2018-07-23 02:28:42
739,芍药居,34cf35fa9be7ff62c07da2de,116.43008443123907,39.97675025962162,1,43,2018-07-23 02:28:42,2018-07-23 02:28:42
740,光熙门,22d13de0792cf934912ca3de,116.42560073391532,39.96711051338991,1,43,2018-07-23 02:28:42,2018-07-23 02:28:42
741,柳芳,2bcbdf2b7f7aa865f7c59cde,116.42651819221781,39.95676346589514,1,43,2018-07-23 02:28:42,2018-07-23 02:28:42
742,东直门,d600d97d2e2bce8caa059dde,116.42897091055565,39.941368797021205,1,43,2018-07-23 02:28:42,2018-07-23 02:28:42
743,沈杜公路,ded0d57cc6ccd1273517dcce,121.5079405965534,31.06348296489899,1,44,2018-07-23 02:28:42,2018-07-23 02:28:42
744,三鲁公路,a8b00544cfb1152ffa42b23f,121.52316012084995,31.058285363625473,1,44,2018-07-23 02:28:42,2018-07-23 02:28:42
745,闵瑞路,84db0925baca8b2b077ce821,121.52606871035458,31.050656136675887,1,44,2018-07-23 02:28:42,2018-07-23 02:28:42
746,浦航路,a74b54df5bf55f325b109376,121.52628755599616,31.043228557803605,0,44,2018-07-23 02:28:42,2018-07-23 02:28:42
747,东城一路,8091b8ec35f75a2714c8f6b7,121.52796238492188,31.032178940871095,1,44,2018-07-23 02:28:42,2018-07-23 02:28:42
748,汇臻路,b1fc0acfbf3d4222b8bd633b,121.52053185890061,31.027448328327395,1,44,2018-07-23 02:28:42,2018-07-23 02:28:42
749,市光路,329d192994fb88054acc4ad9,121.52769222989524,31.32453667015478,1,45,2018-07-23 02:28:42,2018-07-23 02:28:42
750,嫩江路,e60332fc0e4b738515b54bd9,121.52773249610819,31.31694815035106,1,45,2018-07-23 02:28:42,2018-07-23 02:28:42
751,翔殷路,ccd6a84cf5cb2cfcc23644d9,121.52765445931166,31.30705646211778,1,45,2018-07-23 02:28:42,2018-07-23 02:28:42
752,黄兴公园,596653ccaab2fb7f410245d9,121.52887519057192,31.29795158516497,1,45,2018-07-23 02:28:42,2018-07-23 02:28:42
753,延吉中路,a3e60cb57d31784b4d6d46d9,121.53061822620218,31.29071751351634,1,45,2018-07-23 02:28:42,2018-07-23 02:28:42
754,黄兴路,8307eec51502eabd293a9fde,121.52359483852571,31.280682212379,1,45,2018-07-23 02:28:42,2018-07-23 02:28:42
755,江浦路,e4eeb3056cf31073266e98de,121.51387801233732,31.277070461160488,1,45,2018-07-23 02:28:42,2018-07-23 02:28:42
756,鞍山新村,be2ecaf4963d1f271ee999de,121.50507932302969,31.275259460208517,1,45,2018-07-23 02:28:42,2018-07-23 02:28:42
757,四平路,c6df303a996927a041ab9ade,121.49679733118302,31.27692472692551,1,45,2018-07-23 02:28:42,2018-07-23 02:28:42
758,曲阳路,3f113f6ea1ee78e232169bde,121.48598553564284,31.278402236228935,1,45,2018-07-23 02:28:42,2018-07-23 02:28:42
759,虹口足球场,314507e9feac0b5f1d3894de,121.47490517896166,31.271884485818443,0,45,2018-07-23 02:28:42,2018-07-23 02:28:42
760,西藏北路,06c258ab8d112471cb1b95de,121.46420385909715,31.265278750051383,1,45,2018-07-23 02:28:42,2018-07-23 02:28:42
761,中兴路,58802b16a23ff2527af796de,121.4643554108831,31.254919682554323,1,45,2018-07-23 02:28:42,2018-07-23 02:28:42
762,曲阜路,283d0438741c43beea1e97de,121.46694234998235,31.244245441163383,0,45,2018-07-23 02:28:42,2018-07-23 02:28:42
763,人民广场,0613d21bc5f0d35717a190de,121.4710189663056,31.23472688325705,0,45,2018-07-23 02:28:42,2018-07-23 02:28:42
764,大世界,d73063f755192ee8dad891de,121.47480246604327,31.229240774060937,1,45,2018-07-23 02:28:42,2018-07-23 02:28:42
765,老西门,67dcf31ea8a6e39141e192de,121.47840327518259,31.22085911839768,1,45,2018-07-23 02:28:42,2018-07-23 02:28:42
766,陆家浜路,f4350ea165df78a85a1093de,121.4816395991628,31.213656127545782,1,45,2018-07-23 02:28:42,2018-07-23 02:28:42
767,西藏南路,088ac3d8fee6635997f08cde,121.48505837222353,31.203970542842683,0,45,2018-07-23 02:28:42,2018-07-23 02:28:42
768,中华艺术宫,f7047f3d77c431e11911d51d,121.4897087923908,31.187699900425645,1,45,2018-07-23 02:28:42,2018-07-23 02:28:42
769,耀华路,faf358e1e517aeb948fc8dde,121.49008914874085,31.180452862001555,1,45,2018-07-23 02:28:42,2018-07-23 02:28:42
770,成山路,783bcc2c6c3b0e5e09ccdd28,121.49170175368192,31.172862816384715,1,45,2018-07-23 02:28:42,2018-07-23 02:28:42
771,杨思,81052e17b6cba6dc4f2fdf28,121.48925467991968,31.163079106595948,1,45,2018-07-23 02:28:42,2018-07-23 02:28:42
772,东方体育中心,ec19e04f09219f8eaf04570f,121.47596640156425,31.15553040667908,0,45,2018-07-23 02:28:42,2018-07-23 02:28:42
773,凌兆新村,5df58695f02890440969d928,121.48522252514475,31.143028111786343,1,45,2018-07-23 02:28:42,2018-07-23 02:28:42
774,芦恒路,fe341069b33af18a08a8d428,121.4933204933789,31.121319188034796,0,45,2018-07-23 02:28:42,2018-07-23 02:28:42
775,浦江镇,5150153d77c431e11911d528,121.50187463258354,31.098630088183192,1,45,2018-07-23 02:28:42,2018-07-23 02:28:42
776,江月路,92fa11a8a616e9644154d728,121.50414102555872,31.086421251208918,1,45,2018-07-23 02:28:42,2018-07-23 02:28:42
777,联航路,8d1458549b0c105878dbd228,121.50616154053822,31.076083977994887,0,45,2018-07-23 02:28:42,2018-07-23 02:28:42
778,沈杜公路,7b323011c7dc4b206da3cc28,121.50786446519929,31.063481366191112,0,45,2018-07-23 02:28:42,2018-07-23 02:28:42
779,金运路,aa54155565ebb27fcc04efcd,121.31509834257457,31.242946054863946,1,46,2018-07-23 02:28:42,2018-07-23 02:28:42
780,金沙江西路,494842ec3431f54d057ce8cd,121.33069031513905,31.243056752154317,1,46,2018-07-23 02:28:42,2018-07-23 02:28:42
781,丰庄,1ff1133673033c35a31de9cd,121.35104523859142,31.24434916762016,1,46,2018-07-23 02:28:42,2018-07-23 02:28:42
782,祁连山南路,234b24a23a128501177643cd,121.36293351953476,31.23931787571998,1,46,2018-07-23 02:28:42,2018-07-23 02:28:42
783,真北路,4d2b5404ba7b9a549c82eacd,121.37763779140865,31.234063772898295,1,46,2018-07-23 02:28:42,2018-07-23 02:28:42
784,大渡河路,a3cf64a2adb37d159e82eada,121.39047393123586,31.233621391926388,0,46,2018-07-23 02:28:42,2018-07-23 02:28:42
785,金沙江路,0b199d7c1c1aa5cb09f5ebcd,121.40783993737371,31.233009152430096,0,46,2018-07-23 02:28:43,2018-07-23 02:28:43
786,隆德路,e4637199a68f8eb8871541e8,121.41863965733255,31.232303712670817,1,46,2018-07-23 02:28:43,2018-07-23 02:28:43
787,武宁路,af89910ff0217e2e343a710f,121.42560080218944,31.23581398772198,0,46,2018-07-23 02:28:43,2018-07-23 02:28:43
788,长寿路,74605ef90c9b9dee5e17c38f,121.43373704797696,31.2426637666752,0,46,2018-07-23 02:28:43,2018-07-23 02:28:43
789,江宁路,524077e96793f3e2ae080f11,121.43953068572148,31.24605142609902,0,46,2018-07-23 02:28:43,2018-07-23 02:28:43
790,汉中路,c7f814025adb4f6c0aa8d454,121.45430890415156,31.242519544834796,0,46,2018-07-23 02:28:43,2018-07-23 02:28:43
791,自然博物馆,b594e217555ec88b601809e2,121.4582246802513,31.237677387837074,0,46,2018-07-23 02:28:43,2018-07-23 02:28:43
792,南京西路,6da1f6b6c9f0bc14df1e52b1,121.45789524773812,31.230402519617993,1,46,2018-07-23 02:28:43,2018-07-23 02:28:43
793,淮海中路,766754f347bb36a894031995,121.45962289109049,31.221994192715485,1,46,2018-07-23 02:28:43,2018-07-23 02:28:43
794,新天地,1ffd6d33b54f9eef16c90546,121.47036134710173,31.217532909885648,1,46,2018-07-23 02:28:43,2018-07-23 02:28:43
795,马当路,6bf6adac7d619e0688fc0683,121.47185517339777,31.211583861498173,0,46,2018-07-23 02:28:43,2018-07-23 02:28:43
796,世博会博物馆,1a39193224ca609af8221308,121.47745502210783,31.198789524345376,1,46,2018-07-23 02:28:43,2018-07-23 02:28:43
797,世博大道,3c032c1de7b0e9b61d1d1107,121.47988957488609,31.1844662224066,1,46,2018-07-23 02:28:43,2018-07-23 02:28:43
798,曹路,c3fa11f94e41ba58047ce83b,121.67874620397055,31.27327009621626,1,47,2018-07-23 02:28:43,2018-07-23 02:28:43
799,民雷路,53a3f5534703ea5f14c8f67b,121.663916258168,31.270463033395,1,47,2018-07-23 02:28:43,2018-07-23 02:28:43
800,顾唐路,53a96f9c6ae2895014c8f624,121.65228198558161,31.26819778749889,0,47,2018-07-23 02:28:43,2018-07-23 02:28:43
801,金海路,3c00c4aedac1fc83b64f543b,121.63500364185019,31.266375581025663,0,47,2018-07-23 02:28:43,2018-07-23 02:28:43
802,金吉路,5badcb8d675b534d3c9a5e28,121.62360396977768,31.266447615465236,1,47,2018-07-23 02:28:43,2018-07-23 02:28:43
803,金桥,747dce97aaddeaabfbdc8500,121.60827376295141,31.263411639947996,1,47,2018-07-23 02:28:43,2018-07-23 02:28:43
804,台儿庄路,405cdc2773416f753a13fd8d,121.59323599376833,31.255033675120202,0,47,2018-07-23 02:28:43,2018-07-23 02:28:43
805,蓝天路,4c22b3926b9e45305bf6be2c,121.57348600877214,31.243480822988413,1,47,2018-07-23 02:28:43,2018-07-23 02:28:43
806,芳甸路,892d98f487a9282e223bf246,121.5539347717584,31.233494898690225,0,47,2018-07-23 02:28:43,2018-07-23 02:28:43
807,杨高中路,848c32ece30ad8582bb97c87,121.54429610637638,31.22962627064542,0,47,2018-07-23 02:28:43,2018-07-23 02:28:43
808,世纪大道,b877d321ffd171b4e4073847,121.52252363227065,31.230950340395665,0,47,2018-07-23 02:28:43,2018-07-23 02:28:43
809,商城路,beb559d6f7fadd4ea4da3947,121.51192047570385,31.232412454048767,1,47,2018-07-23 02:28:43,2018-07-23 02:28:43
810,小南门,354251fd5b009d930bb93a47,121.49383401609116,31.219020694020532,1,47,2018-07-23 02:28:43,2018-07-23 02:28:43
811,陆家浜路,3e69fd071bdd32f0f6e73b47,121.4816395991628,31.213656127545782,0,47,2018-07-23 02:28:43,2018-07-23 02:28:43
812,马当路,9393bddab4becfaea3a93447,121.47262984263863,31.211273831606103,1,47,2018-07-23 02:28:43,2018-07-23 02:28:43
813,打浦桥,dc4e12b949e09ae012293547,121.46435054262689,31.20797934098462,1,47,2018-07-23 02:28:43,2018-07-23 02:28:43
814,嘉善路,722defe71cae2b60b31e3647,121.4561866678666,31.204683674323324,1,47,2018-07-23 02:28:43,2018-07-23 02:28:43
815,肇嘉浜路,8c73baa9ad2e8a57f3193747,121.44521937065402,31.201334226712458,0,47,2018-07-23 02:28:43,2018-07-23 02:28:43
816,徐家汇,d83d0b290c19ca50a3d23047,121.43229149741387,31.197447095394175,0,47,2018-07-23 02:28:43,2018-07-23 02:28:43
817,宜山路,93dbb8acefe223dd0a1cc7de,121.4230483977253,31.186761802187974,0,47,2018-07-23 02:28:43,2018-07-23 02:28:43
818,桂林路,ca8749e5a59333554351c0de,121.41389763814254,31.17671364564492,0,47,2018-07-23 02:28:43,2018-07-23 02:28:43
819,漕河泾开发区,3cce0394b51b7a184007c1de,121.39298283653434,31.17230935661816,0,47,2018-07-23 02:28:43,2018-07-23 02:28:43
820,合川路,77bf131cfc56794e0582c2de,121.3799631198122,31.16845946190585,0,47,2018-07-23 02:28:43,2018-07-23 02:28:43
821,星中路,64375a51ff003ccb5c17c3de,121.36439585824964,31.160070962122024,0,47,2018-07-23 02:28:43,2018-07-23 02:28:43
822,七宝,2c7a5907ba85655ecbe33cde,121.34499081660564,31.157319282048505,0,47,2018-07-23 02:28:43,2018-07-23 02:28:43
823,中春路,302c1c82e310f2aaca213dde,121.33375732150195,31.151701265674088,0,47,2018-07-23 02:28:43,2018-07-23 02:28:43
824,九亭,74a9451774e4f36840d63ede,121.31446497927983,31.13947844988722,0,47,2018-07-23 02:28:43,2018-07-23 02:28:43
825,泗泾,2e3cd2e37526799f48fd3fde,121.25622950584511,31.12041189040062,0,47,2018-07-23 02:28:43,2018-07-23 02:28:43
826,佘山,b8c8d321ffd171b4e40738de,121.22531417651916,31.10667454978623,0,47,2018-07-23 02:28:43,2018-07-23 02:28:43
827,洞泾,be0a59d6f7fadd4ea4da39de,121.22608450631196,31.086488293294043,0,47,2018-07-23 02:28:43,2018-07-23 02:28:43
828,松江大学城,35fd51fd5b009d930bb93ade,121.22828864545887,31.056202407869304,0,47,2018-07-23 02:28:43,2018-07-23 02:28:43
829,松江新城,3ed6fd071bdd32f0f6e73bde,121.22634718160417,31.032344291041014,0,47,2018-07-23 02:28:43,2018-07-23 02:28:43
830,松江体育中心,cd613b1d238530bcea12e4cd,121.22616532196535,31.018184768788302,1,47,2018-07-23 02:28:43,2018-07-23 02:28:43
831,醉白池,6a000482b6f2d35bac31e5cd,121.22489961783263,31.00310434294395,1,47,2018-07-23 02:28:43,2018-07-23 02:28:43
832,松江南站,569f91f55515957842afe6cd,121.22643528818571,30.987154621838798,1,47,2018-07-23 02:28:43,2018-07-23 02:28:43
833,莘庄,343aa820df4728442ad7abd9,121.38038449989031,31.112832286672816,0,48,2018-07-23 02:28:43,2018-07-23 02:28:43
834,外环路,b60a7940ae0a139ece06a4d9,121.38858842587865,31.12309760321369,0,48,2018-07-23 02:28:43,2018-07-23 02:28:43
835,莲花路,686a080d95d0f74fefe4a5d9,121.39814802332573,31.13275059364296,0,48,2018-07-23 02:28:43,2018-07-23 02:28:43
836,锦江乐园,182733d77101d6ad39e4a6d9,121.40956063097926,31.144112579962673,0,48,2018-07-23 02:28:43,2018-07-23 02:28:43
837,上海南站,20fdd70650e300ad2cfaa7d9,121.42521277651076,31.15676992835777,0,48,2018-07-23 02:28:43,2018-07-23 02:28:43
838,漕宝路,c52cf6e486e315b324e0a0d9,121.43065451348158,31.170014920566906,0,48,2018-07-23 02:28:43,2018-07-23 02:28:43
839,上海体育馆,e3ce20e493fd1da9c62ba1d9,121.43181540226446,31.18387544985889,0,48,2018-07-23 02:28:43,2018-07-23 02:28:43
840,徐家汇,34ce35fa9be7ff62c07da2d9,121.43372113112537,31.194657939416608,0,48,2018-07-23 02:28:43,2018-07-23 02:28:43
841,衡山路,22d03de0792cf934912ca3d9,121.44213599424974,31.206873074092414,0,48,2018-07-23 02:28:43,2018-07-23 02:28:43
842,常熟路,2bcadf2b7f7aa865f7c59cd9,121.4466945663829,31.215510194543857,0,48,2018-07-23 02:28:43,2018-07-23 02:28:43
843,陕西南路,d601d97d2e2bce8caa059dd9,121.45562736760225,31.219214064154496,0,48,2018-07-23 02:28:43,2018-07-23 02:28:43
844,黄陂南路,d157882c48c2934cd3f49ed9,121.46872544543636,31.22474254508973,0,48,2018-07-23 02:28:43,2018-07-23 02:28:43
845,人民广场,8306eec51502eabd293a9fd9,121.47062065406546,31.23492498760887,0,48,2018-07-23 02:28:43,2018-07-23 02:28:43
846,新闸路,e4efb3056cf31073266e98d9,121.46373780412902,31.240573786109355,0,48,2018-07-23 02:28:43,2018-07-23 02:28:43
847,汉中路,be2fcaf4963d1f271ee999d9,121.45396399397985,31.243583431265005,0,48,2018-07-23 02:28:43,2018-07-23 02:28:43
848,上海火车站,c6de303a996927a041ab9ad9,121.45133426544668,31.249242502355727,0,48,2018-07-23 02:28:43,2018-07-23 02:28:43
849,中山北路,3f103f6ea1ee78e232169bd9,121.45458318227449,31.26095898818507,0,48,2018-07-23 02:28:43,2018-07-23 02:28:43
850,延长路,314407e9feac0b5f1d3894d9,121.45087639885953,31.273678268774795,0,48,2018-07-23 02:28:43,2018-07-23 02:28:43
851,上海马戏城,06c358ab8d112471cb1b95d9,121.44749370341424,31.281412631594296,0,48,2018-07-23 02:28:43,2018-07-23 02:28:43
852,汶水路,58812b16a23ff2527af796d9,121.4455532691145,31.294354130366152,0,48,2018-07-23 02:28:43,2018-07-23 02:28:43
853,彭浦新村,283c0438741c43beea1e97d9,121.44408158588118,31.30845833668211,0,48,2018-07-23 02:28:43,2018-07-23 02:28:43
854,共康路,0612d21bc5f0d35717a190d9,121.44243640973,31.32084768047151,0,48,2018-07-23 02:28:43,2018-07-23 02:28:43
855,通河新村,d73163f755192ee8dad891d9,121.43677096362389,31.33325083723349,0,48,2018-07-23 02:28:43,2018-07-23 02:28:43
856,呼兰路,67ddf31ea8a6e39141e192d9,121.43312627410317,31.341436046700206,0,48,2018-07-23 02:28:43,2018-07-23 02:28:43
857,共富新村,f4340ea165df78a85a1093d9,121.42938634811642,31.357006880252847,0,48,2018-07-23 02:28:43,2018-07-23 02:28:43
858,宝安公路,088bc3d8fee6635997f08cd9,121.42628296024397,31.37167403900189,0,48,2018-07-23 02:28:43,2018-07-23 02:28:43
859,友谊西路,faf258e1e517aeb948fc8dd9,121.42326026274014,31.38323510257254,0,48,2018-07-23 02:28:43,2018-07-23 02:28:43
860,富锦路,60cb431028f771b516948ed9,121.41994969136249,31.394214839761187,0,48,2018-07-23 02:28:43,2018-07-23 02:28:43
861,徐泾东,5d5b8695f02890440969d94a,121.29661255596069,31.191238050788595,0,49,2018-07-23 02:28:43,2018-07-23 02:28:43
862,虹桥火车站,5bfd3476e7bc47605bf6bea5,121.31699004578681,31.195932115920993,0,49,2018-07-23 02:28:43,2018-07-23 02:28:43
863,虹桥2号航站楼,ca02562f160a30200c3dda4a,121.32173618316064,31.19660374327266,0,49,2018-07-23 02:28:43,2018-07-23 02:28:43
864,淞虹路,c6c02113e1d36cf6ef74f8d9,121.35463845870213,31.220048553438613,0,49,2018-07-23 02:28:43,2018-07-23 02:28:43
865,北新泾,0c3947d4eab8d63de315f9d9,121.36941132264612,31.218310479525787,0,49,2018-07-23 02:28:43,2018-07-23 02:28:43
866,威宁路,6bfe4cbf5073da5cea56fad9,121.3824307601692,31.21666922092666,0,49,2018-07-23 02:28:43,2018-07-23 02:28:43
867,娄山关路,6395f6745c12d31fc7effbd9,121.39963073146214,31.21290652542745,0,49,2018-07-23 02:28:43,2018-07-23 02:28:43
868,中山公园,d85efa155551fea63786f4d9,121.4133344802847,31.220309172152387,0,49,2018-07-23 02:28:43,2018-07-23 02:28:43
869,江苏路,db3ff35678e80ecf05fef5d9,121.42788596728796,31.22168533434102,0,49,2018-07-23 02:28:43,2018-07-23 02:28:43
